STATION,STNAME,WELL_NAME,LATITUDE,LONGITUDE,LLDATUM,ELEV,COUNTY_NAME,WDL,COMMENT
01N04E36Q001M,Middle River Barrier well 2W screen 61-81 ft bgs       ,MRL-2W              ,37.88605556,-121.48183333,NAD83     ,6.9,San Joaquin,http://wdl.water.ca.gov/waterdatalibrary/docs/Hydstra/index.cfm?site=01N04E36Q001M,"01N04E36Q001M is part of a well cluster.  Other wells in the cluster are 01N04E36Q002,3,4M."
01N04E36Q002M,Middle River Barrier well 3W screen 14-34 ft bgs       ,MRL-3W              ,37.88486111,-121.48216667,NAD83     ,-1.0,San Joaquin,http://wdl.water.ca.gov/waterdatalibrary/docs/Hydstra/index.cfm?site=01N04E36Q002M,"01N04E36Q002M is part of a well cluster.  Other wells in the cluster are 01N04E36Q001,3,4M."
01N04E36Q003M,Middle River Barrier well 2 screen 10-20 ft bgs        ,MLNO-2              ,37.88602778,-121.48191667,NAD83     ,8.6,San Joaquin,http://wdl.water.ca.gov/waterdatalibrary/docs/Hydstra/index.cfm?site=01N04E36Q003M,"01N04E36Q003M is part of a well cluster.  Other wells in the cluster are 01N04E36Q001,2,4M."
01N04E36Q004M,Middle River Barrier well 1 screen 10-20 ft bgs        ,MLNO-1              ,37.88502778,-121.48200000000001,NAD83     ,15.9,San Joaquin,http://wdl.water.ca.gov/waterdatalibrary/docs/Hydstra/index.cfm?site=01N04E36Q004M,"01N04E36Q004M is part of a well cluster.  Other wells in the cluster are 01N04E36Q001,2,3M."
01S04E28F001M,Grant Line Canal Barrier well 2W screen 10-25 ft bgs   ,GLWL-2W             ,37.81855556,-121.54433333,NAD83     ,16.1,San Joaquin,http://wdl.water.ca.gov/waterdatalibrary/docs/Hydstra/index.cfm?site=01S04E28F001M,"01S04E28F001M is part of a well cluster.  Other wells in the cluster are 01S04E28F002,3,4M."
01S04E28F002M,Grant Line Canal Barrier well 1W screen 74-89 ft bgs   ,GLWL-1W             ,37.82041667,-121.54444444,NAD83     ,2.2,San Joaquin,http://wdl.water.ca.gov/waterdatalibrary/docs/Hydstra/index.cfm?site=01S04E28F002M,"01S04E28F002M is part of a well cluster.  Other wells in the cluster are 01S04E28F001,3,4M."
01S04E28F003M,Grant Line Canal Barrier well 1 screen 15-25 ft bgs    ,GLNO-1              ,37.81855556,-121.54380556,NAD83     ,15.4,San Joaquin,http://wdl.water.ca.gov/waterdatalibrary/docs/Hydstra/index.cfm?site=01S04E28F003M,"01S04E28F003M is part of a well cluster.  Other wells in the cluster are 01S04E28F001,2,4M."
01S04E28F004M,Grant Line Canal Barrier well 2 screen 15-25 ft bgs    ,GLNO-2              ,37.82033333,-121.54361111,NAD83     ,19.3,San Joaquin,http://wdl.water.ca.gov/waterdatalibrary/docs/Hydstra/index.cfm?site=01S04E28F004M,"01S04E28F004M is part of a well cluster.  Other wells in the cluster are 01S04E28F001,2,3M."
01S04E28P001M,Old River at Tracy Barrier well 5W screen 36-51 ft bgs ,ORL-5W              ,37.81083333,-121.54263889,NAD83     ,6.7,San Joaquin,http://wdl.water.ca.gov/waterdatalibrary/docs/Hydstra/index.cfm?site=01S04E28P001M,"01S04E28P001M is part of a well cluster.  Other wells in the cluster are 01S04E28P002,3,4M."
01S04E28P002M,Old River at Tracy Barrier well 1W screen 86-106 ft bgs,ORL-1W              ,37.81030556,-121.54488889,NAD83     ,13.7,San Joaquin,http://wdl.water.ca.gov/waterdatalibrary/docs/Hydstra/index.cfm?site=01S04E28P002M,"01S04E28P002M is part of a well cluster.  Other wells in the cluster are 01S04E28P001,3,4M."
01S04E28P003M,Old River at Tracy Barrier well 4 screen 10-20 ft bgs  ,OLNO-4              ,37.8105,-121.54219444,NAD83     ,16.9,San Joaquin,http://wdl.water.ca.gov/waterdatalibrary/docs/Hydstra/index.cfm?site=01S04E28P003M,"01S04E28P003M is part of a well cluster.  Other wells in the cluster are 01S04E28P001,2,4M."
01S04E28P004M,Old River at Tracy Barrier well 3 screen 10-20 ft bgs  ,OLNO-3              ,37.80969444,-121.54277778,NAD83     ,14.1,San Joaquin,http://wdl.water.ca.gov/waterdatalibrary/docs/Hydstra/index.cfm?site=01S04E28P004M,"01S04E28P004M is part of a well cluster.  Other wells in the cluster are 01S04E28P001,2,3M."
01S06E09E001M,Upper Roberts Island Well 3A screen 12-17 ft bgs       ,UR-3A               ,37.86251731,-121.32102875,NAD83     ,8.93,San Joaquin,http://wdl.water.ca.gov/waterdatalibrary/docs/Hydstra/index.cfm?site=01S06E09E001M,01S06E09E001M is part of a well cluster.  The other well in the cluster is 01S06E09E002M.
01S06E09E002M,Upper Roberts Island Well 3B screen 15-20 ft bgs       ,UR-3B               ,37.86251189,-121.32158937,NAD83     ,6.51,San Joaquin,http://wdl.water.ca.gov/waterdatalibrary/docs/Hydstra/index.cfm?site=01S06E09E002M,01S06E09E002M is part of a well cluster.  The other well in the cluster is 01S06E09E001M.
01S06E16D002M,Upper Roberts Island Well 2A screen 12-17 ft bgs       ,UR-2A               ,37.85137325,-121.32365659,NAD83     ,11.67,San Joaquin,http://wdl.water.ca.gov/waterdatalibrary/docs/Hydstra/index.cfm?site=01S06E16D002M,01S06E16D002M is part of a well cluster.  The other well in the cluster is 01S06E16D003M.
01S06E16D003M,Upper Roberts Island Well 2B screen 14-19 ft bgs       ,UR-2B               ,37.85122454,-121.324648,NAD83     ,11.25,San Joaquin,http://wdl.water.ca.gov/waterdatalibrary/docs/Hydstra/index.cfm?site=01S06E16D003M,01S06E16D003M is part of a well cluster.  The other well in the cluster is 01S06E16D002M.
01S06E29R001M,Upper Roberts Island Well 1A screen 23-28 ft bgs       ,UR-1A               ,37.81110136,-121.32564733,NAD83     ,15.383,San Joaquin,http://wdl.water.ca.gov/waterdatalibrary/docs/Hydstra/index.cfm?site=01S06E29R001M,"01S06E29R001M is part of a well cluster.  Other wells in the cluster are 01S06E29R002,3M."
01S06E29R002M,Upper Roberts Island Well 1B screen 20-25 ft bgs       ,UR-1B               ,37.81260856,-121.3256613,NAD83     ,15.363,San Joaquin,http://wdl.water.ca.gov/waterdatalibrary/docs/Hydstra/index.cfm?site=01S06E29R002M,"01S06E29R002M is part of a well cluster.  Other wells in the cluster are 01S06E29R001,3M."
01S06E29R003M,Upper Roberts Island Well 1C screen 35-40 ft bgs       ,UR-1C               ,37.81306824,-121.32579517,NAD83     ,15.333,San Joaquin,http://wdl.water.ca.gov/waterdatalibrary/docs/Hydstra/index.cfm?site=01S06E29R003M,"01S06E29R003M is part of a well cluster.  Other wells in the cluster are 01S06E29R001,2M."
05N03E09L001M,Prospect Island Well 5A screen 27.9-37.9 ft bgs        ,PI-5A               ,38.29020604,-121.64733086,NAD83     ,17.61,Solano,http://wdl.water.ca.gov/waterdatalibrary/docs/Hydstra/index.cfm?site=05N03E09L001M,05N03E09L001M is part of a well cluster.  Other well in the cluster is 05N03E09L002M.
05N03E09L002M,Prospect Island Well 5B screen 67.5-77.5 ft bgs        ,PI-5B               ,38.29019763,-121.64736277,NAD83     ,17.97,Solano,http://wdl.water.ca.gov/waterdatalibrary/docs/Hydstra/index.cfm?site=05N03E09L002M,05N03E09L002M is part of a well cluster.  Other well in the cluster is 05N03E09L001M.
05N03E15F001M,Ryer Island (RD 501) Well 99-7 screen 33-38 ft bgs     ,Ryer MW-7           ,38.27965087,-121.63236835,NAD83     ,-1.76,Solano,http://wdl.water.ca.gov/waterdatalibrary/docs/Hydstra/index.cfm?site=05N03E15F001M,05N03E15F001M is part of a well cluster.  Other well in the cluster is 05N03E15F002M.
05N03E15F002M,Ryer Island (RD 501) Well 99-8 screen 9-14 ft bgs      ,Ryer MW-8           ,38.27964821,-121.63238779,NAD83     ,-1.62,Solano,http://wdl.water.ca.gov/waterdatalibrary/docs/Hydstra/index.cfm?site=05N03E15F002M,05N03E15F002M is part of a well cluster.  Other well in the cluster is 05N03E15F001M.
05N03E15P001M,Ryer Island (RD 501) Well 99-5 screen 33-38 ft bgs     ,Ryer MW-5           ,38.27280057,-121.62985774,NAD83     ,-2.91,Solano,http://wdl.water.ca.gov/waterdatalibrary/docs/Hydstra/index.cfm?site=05N03E15P001M,05N03E15P001M is part of a well cluster.  Other well in the cluster is 05N03E15P002M.
05N03E15P002M,Ryer Island (RD 501) Well 99-6 screen 8-13 ft bgs      ,Ryer MW-6           ,38.27280145,-121.62988366,NAD83     ,-3.17,Solano,http://wdl.water.ca.gov/waterdatalibrary/docs/Hydstra/index.cfm?site=05N03E15P002M,05N03E15P002M is part of a well cluster.  Other well in the cluster is 05N03E15P001M.
05N03E16A001M,Ryer Island (RD 501) Well 99-9 screen 33-38 ft bgs     ,Ryer MW-9           ,38.28453651,-121.64187693,NAD83     ,-1.73,Solano,http://wdl.water.ca.gov/waterdatalibrary/docs/Hydstra/index.cfm?site=05N03E16A001M,05N03E16A001M is part of a well cluster.  Other well in the cluster is 05N03E16A002M.
05N03E16A002M,Ryer Island (RD 501) Well 99-10 screen 8-13 ft bgs     ,Ryer MW-10          ,38.28453651,-121.64187693,NAD83     ,-1.26,Solano,http://wdl.water.ca.gov/waterdatalibrary/docs/Hydstra/index.cfm?site=05N03E16A002M,05N03E16A002M is part of a well cluster.  Other well in the cluster is 05N03E16A001M.
05N03E16B001M,Prospect Island Well 6A screen 16.2-26.2 ft bgs        ,PI-6A               ,38.28471043,-121.64425711,NAD83     ,16.41,Solano,http://wdl.water.ca.gov/waterdatalibrary/docs/Hydstra/index.cfm?site=05N03E16B001M,05N03E16B001M is part of a well cluster.  Other well in the cluster is 05N03E16B002M.
05N03E16B002M,Prospect Island Well 6B screen 45.8-55.8 ft bgs        ,PI-6B               ,38.28473692,-121.64425299,NAD83     ,16.45,Solano,http://wdl.water.ca.gov/waterdatalibrary/docs/Hydstra/index.cfm?site=05N03E16B002M,05N03E16B002M is part of a well cluster.  Other well in the cluster is 05N03E16B001M.
05N03E16H001M,Prospect Island Well 7A screen 12.4-22.4 ft bgs        ,PI-7A               ,38.27892112,-121.64030159999999,NAD83     ,15.87,Solano,http://wdl.water.ca.gov/waterdatalibrary/docs/Hydstra/index.cfm?site=05N03E16H001M,05N03E16H001M is part of a well cluster.  Other well in the cluster is 05N03E16H002M.
05N03E16H002M,Prospect Island Well 7B screen 46.8-56.8 ft bgs        ,PI-7B               ,38.27893819,-121.64032833,NAD83     ,15.94,Solano,http://wdl.water.ca.gov/waterdatalibrary/docs/Hydstra/index.cfm?site=05N03E16H002M,05N03E16H002M is part of a well cluster.  Other well in the cluster is 05N03E16H001M.
05N03E16J001M,Ryer Island (RD 501) Well 99-3 screen 34-39 ft bgs     ,Ryer MW-3           ,38.27417177,-121.63988802,NAD83     ,0.93,Solano,http://wdl.water.ca.gov/waterdatalibrary/docs/Hydstra/index.cfm?site=05N03E16J001M,05N03E16J001M is part of a well cluster.  Other well in the cluster is 05N03E16J002M.
05N03E16J002M,Ryer Island (RD 501) Well 99-4 screen 8-13 ft bgs      ,Ryer MW-4           ,38.27417072,-121.63990616,NAD83     ,0.82,Solano,http://wdl.water.ca.gov/waterdatalibrary/docs/Hydstra/index.cfm?site=05N03E16J002M,05N03E16J002M is part of a well cluster.  Other well in the cluster is 05N03E16J001M.
05N03E16R001M,Ryer Island (RD 501) Well 99-11 screen 53-58 ft bgs    ,Ryer MW-11          ,38.2711299,-121.64191448,NAD83     ,27.11,Solano,http://wdl.water.ca.gov/waterdatalibrary/docs/Hydstra/index.cfm?site=05N03E16R001M,None
05N03E16R002M,Prospect Island Well 8A screen 12-22 ft bgs            ,PI-8A               ,38.27267165,-121.64241576,NAD83     ,15.7,Solano,http://wdl.water.ca.gov/waterdatalibrary/docs/Hydstra/index.cfm?site=05N03E16R002M,05N03E16R002M is part of a well cluster.  Other well in the cluster is 05N03E16R003M.
05N03E16R003M,Prospect Island Well 8B screen 46.3-56.3 ft bgs        ,PI-8B               ,38.2726972,-121.64239963,NAD83     ,15.85,Solano,http://wdl.water.ca.gov/waterdatalibrary/docs/Hydstra/index.cfm?site=05N03E16R003M,05N03E16R003M is part of a well cluster.  Other well in the cluster is 05N03E16R002M.
05N03E20B001M,Prospect Island Well 3A screen 12.1-22.1 ft bgs        ,PI-3A               ,38.27028472,-121.66134915,NAD83     ,13.85,Solano,http://wdl.water.ca.gov/waterdatalibrary/docs/Hydstra/index.cfm?site=05N03E20B001M,05N03E20B001M is part of a well cluster.  Other wells in the cluster are 05N03E20B002M and 05N03E20B003M.
05N03E20B002M,Prospect Island Well 3B screen 42.3-52.3 ft bgs        ,PI-3B               ,38.27031076,-121.66134034,NAD83     ,13.99,Solano,http://wdl.water.ca.gov/waterdatalibrary/docs/Hydstra/index.cfm?site=05N03E20B002M,05N03E20B002M is part of a well cluster.  Other wells in the cluster are 05N03E20B001M and 05N03E20B003M.
05N03E20B003M,Prospect Island Well 3C screen 84.2-94.2 ft bgs        ,PI-3C               ,38.27032465,-121.66133658,NAD83     ,13.96,Solano,http://wdl.water.ca.gov/waterdatalibrary/docs/Hydstra/index.cfm?site=05N03E20B003M,05N03E20B003M is part of a well cluster.  Other wells in the cluster are 05N03E20B001M and 05N03E20B002M.
05N03E21G001M,Prospect Island Well 9A screen 11.2-21.2 ft bgs        ,PI-9A               ,38.26652,-121.64293470000001,NAD83     ,15.34,Solano,http://wdl.water.ca.gov/waterdatalibrary/docs/Hydstra/index.cfm?site=05N03E21G001M,05N03E21G001M is part of a well cluster.  Other wells in the cluster are 05N03E21G002M and 05N03E21G003M.
05N03E21G002M,Prospect Island Well 9B screen 45.7-55.7 ft bgs        ,PI-9B               ,38.2665424,-121.64291408,NAD83     ,15.33,Solano,http://wdl.water.ca.gov/waterdatalibrary/docs/Hydstra/index.cfm?site=05N03E21G002M,05N03E21G002M is part of a well cluster.  Other wells in the cluster are 05N03E21G001M and 05N03E21G003M.
05N03E21G003M,Prospect Island Well 9C screen 83.5-93.5 ft bgs        ,PI-9C               ,38.26656228,-121.64289534,NAD83     ,15.33,Solano,http://wdl.water.ca.gov/waterdatalibrary/docs/Hydstra/index.cfm?site=05N03E21G003M,05N03E21G003M is part of a well cluster.  Other wells in the cluster are 05N03E21G001M and 05N03E21G002M.
05N03E21H001M,Ryer Island (RD 501) Well 99-1 screen 33-38 ft bgs     ,Ryer MW-1           ,38.26574339,-121.64080961,NAD83     ,0.21,Solano,http://wdl.water.ca.gov/waterdatalibrary/docs/Hydstra/index.cfm?site=05N03E21H001M,05N03E21H001M is part of a well cluster.  Other well in the cluster is 05N03E21H002M.
05N03E21H002M,Ryer Island (RD 501) Well 99-2 screen 5-10 ft bgs      ,Ryer MW-2           ,38.26574339,-121.64080961,NAD83     ,0.36,Solano,http://wdl.water.ca.gov/waterdatalibrary/docs/Hydstra/index.cfm?site=05N03E21H002M,05N03E21H002M is part of a well cluster.  Other well in the cluster is 05N03E21H001M.
05N03E21L001M,Prospect Island Well 10A screen 18-28 ft bgs           ,PI-10A              ,38.26230448,-121.65030442,NAD83     ,14.79,Solano,http://wdl.water.ca.gov/waterdatalibrary/docs/Hydstra/index.cfm?site=05N03E21L001M,05N03E21L001M is part of a well cluster.  Other well in the cluster is 05N03E21L002M.
05N03E21L002M,Prospect Island Well 10B screen 45.5-55.5 ft bgs       ,PI-10B              ,38.26230426,-121.65026937,NAD83     ,14.85,Solano,http://wdl.water.ca.gov/waterdatalibrary/docs/Hydstra/index.cfm?site=05N03E21L002M,05N03E21L002M is part of a well cluster.  Other well in the cluster is 05N03E21L001M.
05N03E29A001M,Prospect Island Well 1A screen 13.1-23.1 ft bgs        ,PI-1A               ,38.25305822,-121.65674016,NAD83     ,14.81,Solano,http://wdl.water.ca.gov/waterdatalibrary/docs/Hydstra/index.cfm?site=05N03E29A001M,05N03E29A001M is part of a well cluster.  Other well in the cluster is 05N03E29A002M.
05N03E29A002M,Prospect Island Well 1B screen 60.7-70.7 ft bgs        ,PI-1B               ,38.25307107,-121.65671031,NAD83     ,14.79,Solano,http://wdl.water.ca.gov/waterdatalibrary/docs/Hydstra/index.cfm?site=05N03E29A002M,05N03E29A002M is part of a well cluster.  Other well in the cluster is 05N03E29A001M.
05N03E29C001M,Prospect Island Well 2A screen 8.3-18.3 ft bgs         ,PI-2A               ,38.25323585,-121.66649661,NAD83     ,12.95,Solano,http://wdl.water.ca.gov/waterdatalibrary/docs/Hydstra/index.cfm?site=05N03E29C001M,05N03E29C001M is part of a well cluster.  Other well in the cluster is 05N03E29C002M.
05N03E29C002M,Prospect Island Well 2B screen 49.6-59.6 ft bgs        ,PI-2B               ,38.25325886,-121.66651141,NAD83     ,12.85,Solano,http://wdl.water.ca.gov/waterdatalibrary/docs/Hydstra/index.cfm?site=05N03E29C002M,05N03E29C002M is part of a well cluster.  Other well in the cluster is 05N03E29C001M.
07N02E35D001M,RD 2068 Well 1A shallow screen 28-38 ft bgs            ,RD2068 MW-1A shallow,38.4159,-121.7303,NAD83     ,33.0,Colusa,http://wdl.water.ca.gov/waterdatalibrary/docs/Hydstra/index.cfm?site=07N02E35D001M,"07N02E35D001M is part of a nested well.  Other wells in the nest are 07N02E35D002,3M."
07N02E35D002M,RD 2068 Well 1B middle screen 213-238 ft bgs           ,RD2068 MW-1B middle ,38.4159,-121.7303,NAD83     ,33.0,Colusa,http://wdl.water.ca.gov/waterdatalibrary/docs/Hydstra/index.cfm?site=07N02E35D002M,"07N02E35D002M is part of a nested well.  Other wells in the nest are 07N02E35D001,3M."
07N02E35D003M,RD 2068 Well 1C deep screen 430-440 ft bgs             ,RD2068 MW-1C deep   ,38.4159,-121.7303,NAD83     ,33.0,Colusa,http://wdl.water.ca.gov/waterdatalibrary/docs/Hydstra/index.cfm?site=07N02E35D003M,"07N02E35D003M is part of a nested well.  Other wells in the nest are 07N02E35D001,2M."
09N03E08C001M,Conaway Land Subsidence Well shallow scrn 80-90 ft bgs ,CON P1 shallow      ,38.646421999999994,-121.66748700000001,NAD83     ,27.5,Yolo,http://wdl.water.ca.gov/waterdatalibrary/docs/Hydstra/index.cfm?site=09N03E08C001M,"09N03E08C001M is part of a nested well and a cluster.  Other wells in the nest are 09N03E08C002,3M.  The other well in the cluster is 09N03E08C004M."
09N03E08C002M,Conaway Subsidence Well mid-shallow scrn 140-150 ft bgs,CON P2 mid-shallow  ,38.646421999999994,-121.66748700000001,NAD83     ,27.5,Yolo,http://wdl.water.ca.gov/waterdatalibrary/docs/Hydstra/index.cfm?site=09N03E08C002M,"09N03E08C002M is part of a nested well and a cluster.  Other wells in the nest are 09N03E08C001,3M.  The other well in the cluster is 09N03E08C004M."
09N03E08C003M,Conaway Subsidence Well mid-deep screen 240-280 ft bgs ,CON P3 middle-deep  ,38.646421999999994,-121.66748700000001,NAD83     ,27.5,Yolo,http://wdl.water.ca.gov/waterdatalibrary/docs/Hydstra/index.cfm?site=09N03E08C003M,"09N03E08C003M is part of a nested well and a cluster.  Other wells in the nest are 09N03E08C001,2M.  The other well in the cluster is 09N03E08C004M."
09N03E08C004M,Conaway Extensometer screen 535-545 depth 716 ft bgs   ,CON Ext and P4 deep ,38.64643,-121.66738400000001,NAD83     ,27.5,Yolo,http://wdl.water.ca.gov/waterdatalibrary/docs/Hydstra/index.cfm?site=09N03E08C004M,"09N03E08C004M is the extensometer and part of a well cluster.  Other wells in the cluster are 09N03E08C001,2,3M (nested well)."
09N04E20N001M,Sacramento Bypass Monitoring Well - Shallow            ,Sac Bypass Shallow  ,38.606328999999995,-121.56017299999999,NAD83     ,21.49,Yolo,http://wdl.water.ca.gov/waterdatalibrary/docs/Hydstra/index.cfm?site=09N04E20N001M,"09N04E20N001M (shallow) is part of a dual completion monitoring well.  The other well (deep) has a SWN of 09N04E20N002M. DWR surveyed site, new elevation reflects surveyed results in 1/14/15 Sacramento Valley NCRO Well Site Survey Report"
09N04E20N002M,Sacramento Bypass Monitoring Well - Deep               ,Sac Bypass Deep     ,38.606328999999995,-121.56017299999999,NAD83     ,21.49,Yolo,http://wdl.water.ca.gov/waterdatalibrary/docs/Hydstra/index.cfm?site=09N04E20N002M,"09N04E20N002M (Deep) is part of a dual completion monitoring well.  The other well (Shallow) has a SWN of 09N04E20N001M. DWR surveyed site, new elevation reflects surveyed results in 1/14/15 Sacramento Valley NCRO Well Site Survey Report"
09N07E02G001M,Glenn Drive Well Screen 70-100 ft bgs                  ,Glenn Drive Well    ,38.665,-121.1776,NAD83     ,177.32,Sacramento,http://wdl.water.ca.gov/waterdatalibrary/docs/Hydstra/index.cfm?site=09N07E02G001M,Single Completion Well
10N04E27R002M,"American Basin Well 3 deep scrn 745-755,975-985 ft bgs ",AB-3 Deep           ,38.6869,-121.5221,NAD83     ,27.34,Sacramento,http://wdl.water.ca.gov/waterdatalibrary/docs/Hydstra/index.cfm?site=10N04E27R002M,"10N04E27R002M is part of a nested well.  Other wells in the nest are 10N04E27R003,4M. DWR surveyed site, new elevation reflects surveyed results in 1/14/15 Sacramento Valley NCRO Well Site Survey Report"
10N04E27R003M,American Basin Well 3 middle screen 470-490 ft bgs     ,AB-3 Middle         ,38.6869,-121.5221,NAD83     ,27.34,Sacramento,http://wdl.water.ca.gov/waterdatalibrary/docs/Hydstra/index.cfm?site=10N04E27R003M,"10N04E27R003M is part of a nested well.  Other wells in the nest are 10N04E27R002,4M. DWR surveyed site, new elevation reflects surveyed results in 1/14/15 Sacramento Valley NCRO Well Site Survey Report"
10N04E27R004M,American Basin Well 3 shallow screen 190-210 ft bgs    ,AB-3 Shallow        ,38.6869,-121.5221,NAD83     ,27.34,Sacramento,http://wdl.water.ca.gov/waterdatalibrary/docs/Hydstra/index.cfm?site=10N04E27R004M,"10N04E27R004M is part of a nested well.  Other wells in the nest are 10N04E27R002,3M. DWR surveyed site, new elevation reflects surveyed results in 1/14/15 Sacramento Valley NCRO Well Site Survey Report"
10N04E31M001M,American Basin Well 4 deep screen 1060-1070 ft bgs     ,AB-4 Deep           ,38.6783,-121.5943,NAD83     ,16.78,Sacramento,http://wdl.water.ca.gov/waterdatalibrary/docs/Hydstra/index.cfm?site=10N04E31M001M,"10N04E31M001M is part of a well cluster.  Other wells in the cluster are 10N04E31M002,3,4M (nested well). DWR surveyed site, new elevation reflects surveyed results in 1/14/15 Sacramento Valley NCRO Well Site Survey Report"
10N04E31M002M,American Basin Well 4 middle-deep screen 795-815 ft bgs,AB-4 Middle-Deep    ,38.6783,-121.5943,NAD83     ,16.78,Sacramento,http://wdl.water.ca.gov/waterdatalibrary/docs/Hydstra/index.cfm?site=10N04E31M002M,"10N04E31M002M is part of a nested well and a cluster.  Other wells in the nest are 10N04E31M003,4M.  The other well in the cluster is 10N04E31M001. DWR surveyed site, new elevation reflects surveyed results in 1/14/15 Sacramento Valley NCRO Well Site Survey Report"
10N04E31M003M,American Basin Well 4 mid-shallow screen 380-400 ft bgs,AB-4 Middle-Shallow ,38.6783,-121.5943,NAD83     ,16.78,Sacramento,http://wdl.water.ca.gov/waterdatalibrary/docs/Hydstra/index.cfm?site=10N04E31M003M,"10N04E31M003M is part of a nested well and a cluster.  Other wells in the nest are 10N04E31M002,4M.  The other well in the cluster is 10N04E31M001. DWR surveyed site, new elevation reflects surveyed results in 1/14/15 Sacramento Valley NCRO Well Site Survey Report"
10N04E31M004M,American Basin Well 4 shallow screen 170-190 ft bgs    ,AB-4 Shallow        ,38.6783,-121.5943,NAD83     ,16.78,Sacramento,http://wdl.water.ca.gov/waterdatalibrary/docs/Hydstra/index.cfm?site=10N04E31M004M,"10N04E31M004M is part of a nested well and a well cluster.  Other wells in the nest are 10N04E31M002,3M.  The other well in the cluster is 10N04E31M001. DWR surveyed site, new elevation reflects surveyed results in 1/14/15 Sacramento Valley NCRO Well Site Survey Report"
10N08E29J001M,East Natoma Well Screened 55-85 ft bgs                 ,East Natoma Well    ,38.6895,-121.1169,NAD83     ,382.2,Sacramento,http://wdl.water.ca.gov/waterdatalibrary/docs/Hydstra/index.cfm?site=10N08E29J001M,Single Completion Well
11N01E02D001M,"LCB Well 13 deep scrn 600-610,670-680 ft bgs           ",LCB-13 Deep         ,38.8362,-121.8352,NAD83     ,27.45,Yolo,http://wdl.water.ca.gov/waterdatalibrary/docs/Hydstra/index.cfm?site=11N01E02D001M,"11N01E02D001M is part of a nested well.  Other wells in the nest are 11N01E02D002,3M. DWR surveyed site, new elevation reflects surveyed results in 1/14/15 Sacramento Valley NCRO Well Site Survey Report"
11N01E02D002M,"LCB Well 13 middle screen 400-410,480-490 ft bgs       ",LCB-13 Middle       ,38.8362,-121.8352,NAD83     ,27.45,Yolo,http://wdl.water.ca.gov/waterdatalibrary/docs/Hydstra/index.cfm?site=11N01E02D002M,"11N01E02D002M is part of a nested well.  Other wells in the nest are 11N01E02D001,3M. DWR surveyed site, new elevation reflects surveyed results in 1/14/15 Sacramento Valley NCRO Well Site Survey Report"
11N01E02D003M,LCB Well 13 shallow scrn 170-180 ft bgs                ,LCB-13 Shallow      ,38.8362,-121.8352,NAD83     ,27.45,Yolo,http://wdl.water.ca.gov/waterdatalibrary/docs/Hydstra/index.cfm?site=11N01E02D003M,"11N01E02D003M is part of a nested well.  Other wells in the nest are 11N01E02D001,2M. DWR surveyed site, new elevation reflects surveyed results in 1/14/15 Sacramento Valley NCRO Well Site Survey Report"
11N01E24Q004M,Zamora Land Subsidence Well deep screen 784-789 ft bgs ,ZAM P1 deep         ,38.779387,-121.812395,NAD83     ,41.8,Yolo,http://wdl.water.ca.gov/waterdatalibrary/docs/Hydstra/index.cfm?site=11N01E24Q004M,"11N01E24Q004M is part of a nested monitoring well.  Other wells in the nest are 11N01E24Q005,6,7M. DWR surveyed site, new elevation reflects surveyed results in 1/14/15 Sacramento Valley NCRO Well Site Survey Report"
11N01E24Q005M,Zamora Subsidence Well mid-deep screen 583-588 ft bgs  ,ZAM P2 middle-deep  ,38.779387,-121.812395,NAD83     ,41.8,Yolo,http://wdl.water.ca.gov/waterdatalibrary/docs/Hydstra/index.cfm?site=11N01E24Q005M,"11N01E24Q005M is part of a nested monitoring well.  Other wells in the nest are 11N01E24Q004,6,7M. DWR surveyed site, new elevation reflects surveyed results in 1/14/15 Sacramento Valley NCRO Well Site Survey Report"
11N01E24Q006M,Zamora Subsidence Well mid-shall screen 382-387 ft bgs ,ZAM P3 mid-shallow  ,38.779387,-121.812395,NAD83     ,41.8,Yolo,http://wdl.water.ca.gov/waterdatalibrary/docs/Hydstra/index.cfm?site=11N01E24Q006M,"11N01E24Q006M is part of a nested monitoring well.  Other wells in the nest are 11N01E24Q004,5,7M. DWR surveyed site, new elevation reflects surveyed results in 1/14/15 Sacramento Valley NCRO Well Site Survey Report"
11N01E24Q007M,Zamora Subsidence Well shallow screen 180-200 ft bgs   ,ZAM P4 shallow      ,38.779387,-121.812395,NAD83     ,41.8,Yolo,http://wdl.water.ca.gov/waterdatalibrary/docs/Hydstra/index.cfm?site=11N01E24Q007M,"11N01E24Q007M is part of a nested monitoring well.  Other wells in the nest are 11N01E24Q004,5,6M. DWR surveyed site, new elevation reflects surveyed results in 1/14/15 Sacramento Valley NCRO Well Site Survey Report"
11N02E05C002M,River Garden Farms Field 71 deep screen 216-226 ft bgs ,RGF Field 71 deep   ,38.833764,-121.77690600000001,NAD83     ,26.41,Yolo,http://wdl.water.ca.gov/waterdatalibrary/docs/Hydstra/index.cfm?site=11N02E05C002M,None
11N02E05F001M,River Garden Farms Field 65 Monitoring Well            ,RGF Field 65        ,38.827552000000004,-121.7745,NAD83     ,26.0,Yolo,http://wdl.water.ca.gov/waterdatalibrary/docs/Hydstra/index.cfm?site=11N02E05F001M,Water transfers monitoring well
11N03E02Q002M,Sutter County MW-5A shallow screen 130 to 160 ft bgs   ,SCMW-5A             ,38.82323563,-121.6076354,NAD83     ,24.71,Sutter,http://wdl.water.ca.gov/waterdatalibrary/docs/Hydstra/index.cfm?site=11N03E02Q002M,"11N03E02Q002M is part of a nested well.  Other wells in the nest are 11N03E02Q003M, 4, and 5M."
11N03E02Q003M,Sutter County MW-5B Mid-Shallow screen 655-675 FT BGS  ,SCMW-5B             ,38.82323563,-121.6076354,NAD83     ,24.71,Sutter,http://wdl.water.ca.gov/waterdatalibrary/docs/Hydstra/index.cfm?site=11N03E02Q003M,"11N03E02Q003M is part of a nested well.  Other wells in the nest are 11N03E02Q002M, 4, and 5M."
11N03E02Q004M,Sutter County MW-5C Mid-Deep screen 910-920 FT BGS     ,SCMW-5C             ,38.82323563,-121.6076354,NAD83     ,24.71,Sutter,http://wdl.water.ca.gov/waterdatalibrary/docs/Hydstra/index.cfm?site=11N03E02Q004M,"11N03E02Q004M is part of a nested well.  Other wells in the nest are 11N03E02Q002M, 3, and 5M."
11N03E02Q005M,Sutter County MW-5D Deep screen 1205-1215 FT BGS       ,SCMW-5D             ,38.82323563,-121.6076354,NAD83     ,24.71,Sutter,http://wdl.water.ca.gov/waterdatalibrary/docs/Hydstra/index.cfm?site=11N03E02Q005M,"11N03E02Q005M is part of a nested well.  Other wells in the nest are 11N03E02Q002M, 3, and 4M."
11N04E04N001M,Sutter Land Subsidence Well deep screen 880-890 ft bgs ,SUT P4 deep         ,38.823611,-121.54311299999999,NAD83     ,31.0,Sutter,http://wdl.water.ca.gov/waterdatalibrary/docs/Hydstra/index.cfm?site=11N04E04N001M,"11N04E04N001M is part of a nested well.  Other wells in the nest are 11N04E04N002,3,4M. DWR surveyed site, new elevation reflects surveyed results in 1/14/15 Sacramento Valley NCRO Well Site Survey Report"
11N04E04N002M,Sutter Subsidence Well mid-deep screen 295-305 ft bgs  ,SUT P3 middle-deep  ,38.823611,-121.54311299999999,NAD83     ,31.0,Sutter,http://wdl.water.ca.gov/waterdatalibrary/docs/Hydstra/index.cfm?site=11N04E04N002M,"11N04E04N002M is part of a nested well.  Other wells in the nest are 11N04E04N001,3,4M. DWR surveyed site, new elevation reflects surveyed results in 1/14/15 Sacramento Valley NCRO Well Site Survey Report"
11N04E04N003M,Sutter Subsidence Well mid-shall screen 185-195 ft bgs ,SUT P2 mid-shallow  ,38.823611,-121.54311299999999,NAD83     ,31.0,Sutter,http://wdl.water.ca.gov/waterdatalibrary/docs/Hydstra/index.cfm?site=11N04E04N003M,"11N04E04N003M is part of a nested well.  Other wells in the nest are 11N04E04N001,2,4M. DWR surveyed site, new elevation reflects surveyed results in 1/14/15 Sacramento Valley NCRO Well Site Survey Report"
11N04E04N004M,Sutter Subsidence Well shallow screen 110-120 ft bgs   ,SUT P1 shallow      ,38.823611,-121.54311299999999,NAD83     ,31.0,Sutter,http://wdl.water.ca.gov/waterdatalibrary/docs/Hydstra/index.cfm?site=11N04E04N004M,"11N04E04N004M is part of a nested well.  Other wells in the nest are 11N04E04N001,2,3M. DWR surveyed site, new elevation reflects surveyed results in 1/14/15 Sacramento Valley NCRO Well Site Survey Report"
12N01E07N001M,LCB Well 7 deep screen 700-710 ft bgs                  ,LCB-7 Deep          ,38.8965,-121.9139,NAD83     ,26.57,Yolo,http://wdl.water.ca.gov/waterdatalibrary/docs/Hydstra/index.cfm?site=12N01E07N001M,"12N01E07N001M is part of a nested well.  Other wells in the nest are 12N01E07N002,3M. DWR surveyed site, new elevation reflects surveyed results in 1/14/15 Sacramento Valley NCRO Well Site Survey Report"
12N01E07N002M,LCB Well 7 middle screen 420-430 ft bgs                ,LCB-7 Middle        ,38.8965,-121.9139,NAD83     ,26.57,Yolo,http://wdl.water.ca.gov/waterdatalibrary/docs/Hydstra/index.cfm?site=12N01E07N002M,"12N01E07N002M is part of a nested well.  Other wells in the nest are 12N01E07N001,3M. DWR surveyed site, new elevation reflects surveyed results in 1/14/15 Sacramento Valley NCRO Well Site Survey Report"
12N01E07N003M,LCB Well 7 shallow screen 280-290 ft bgs               ,LCB-7 Shallow       ,38.8965,-121.9139,NAD83     ,26.57,Yolo,http://wdl.water.ca.gov/waterdatalibrary/docs/Hydstra/index.cfm?site=12N01E07N003M,"12N01E07N003M is part of a nested well.  Other wells in the nest are 12N01E07N001,2M. DWR surveyed site, new elevation reflects surveyed results in 1/14/15 Sacramento Valley NCRO Well Site Survey Report"
12N01E14R001M,LCB Well 9 deep screen 525-545 ft bgs                  ,LCB-9 Deep          ,38.8813,-121.8219,NAD83     ,29.55,Yolo,http://wdl.water.ca.gov/waterdatalibrary/docs/Hydstra/index.cfm?site=12N01E14R001M,"12N01E14R001M is part of a nested well.  Other wells in the nest are 12N01E14R002,3M. DWR surveyed site, new elevation reflects surveyed results in 1/14/15 Sacramento Valley NCRO Well Site Survey Report"
12N01E14R002M,LCB Well 9 shallow screen 230-240 ft bgs               ,LCB-9 Shallow       ,38.8813,-121.8219,NAD83     ,29.55,Yolo,http://wdl.water.ca.gov/waterdatalibrary/docs/Hydstra/index.cfm?site=12N01E14R002M,"12N01E14R002M is part of a nested well.  Other wells in the nest are 12N01E14R001,3M. DWR surveyed site, new elevation reflects surveyed results in 1/14/15 Sacramento Valley NCRO Well Site Survey Report"
12N01E14R003M,LCB Well 9 middle screen 360-370 ft bgs                ,LCB-9 Middle        ,38.8813,-121.8219,NAD83     ,29.55,Yolo,http://wdl.water.ca.gov/waterdatalibrary/docs/Hydstra/index.cfm?site=12N01E14R003M,"12N01E14R003M is part of a nested well.  Other wells in the nest are 12N01E14R001,2M. DWR surveyed site, new elevation reflects surveyed results in 1/14/15 Sacramento Valley NCRO Well Site Survey Report"
12N02E21Q001M,Sacramento River Well 1A shallow screen 54-64 ft bgs   ,SR-1A shallow       ,38.869027,-121.752499,NAD83     ,32.71,Yolo,http://wdl.water.ca.gov/waterdatalibrary/docs/Hydstra/index.cfm?site=12N02E21Q001M,"12N02E21Q001M is part of a nested well.  Other wells in the nest are 12N02E21Q002,3M."
12N02E21Q002M,Sacramento River Well 1B middle screen 254-274 ft bgs  ,SR-1B middle        ,38.869027,-121.752499,NAD83     ,32.71,Yolo,http://wdl.water.ca.gov/waterdatalibrary/docs/Hydstra/index.cfm?site=12N02E21Q002M,"12N02E21Q002M is part of a nested well.  Other wells in the nest are 12N02E21Q001,3M."
12N02E21Q003M,Sacramento River well 1C deep screen 548-568 ft bgs    ,SR-1C deep          ,38.869027,-121.752499,NAD83     ,32.71,Yolo,http://wdl.water.ca.gov/waterdatalibrary/docs/Hydstra/index.cfm?site=12N02E21Q003M,"12N02E21Q003M is part of a nested well.  Other wells in the nest are 12N02E21Q001,2M."
12N02E23H001M,Sutter County MW-2A shallow screen 120 to 140 ft bgs   ,SCMW-2A             ,38.876059000000005,-121.709429,NAD83     ,22.236,Sutter,http://wdl.water.ca.gov/waterdatalibrary/docs/Hydstra/index.cfm?site=12N02E23H001M,"12N02E23H001M is part of a nested well.  Other wells in the nest are 12N02E23H002,3,4M."
12N02E23H002M,Sutter County MW-2B mid-shall screen 260 to 280 ft bgs ,SCMW-2B             ,38.876059000000005,-121.709429,NAD83     ,22.236,Sutter,http://wdl.water.ca.gov/waterdatalibrary/docs/Hydstra/index.cfm?site=12N02E23H002M,"12N02E23H002M is part of a nested well.  Other wells in the nest are 12N02E23H001,3,4M."
12N02E23H003M,Sutter County MW-2C mid-deep screen 570 to 590 ft bgs  ,SCMW-2C             ,38.876059000000005,-121.709429,NAD83     ,22.236,Sutter,http://wdl.water.ca.gov/waterdatalibrary/docs/Hydstra/index.cfm?site=12N02E23H003M,"12N02E23H003M is part of a nested well.  Other wells in the nest are 12N02E23H001,2,4M."
12N02E23H004M,Sutter County MW-2D deep screen 695 to 705 ft bgs      ,SCMW-2D             ,38.876059000000005,-121.709429,NAD83     ,22.236,Sutter,http://wdl.water.ca.gov/waterdatalibrary/docs/Hydstra/index.cfm?site=12N02E23H004M,"12N02E23H004M is part of a nested well.  Other wells in the nest are 12N02E23H001,2,3M."
12N02E33P003M,River Garden Farms Field 93 mid screen 320-350 ft bgs  ,RGF Field 93 middle ,38.835004999999995,-121.757944,NAD83     ,28.21,Yolo,http://wdl.water.ca.gov/waterdatalibrary/docs/Hydstra/index.cfm?site=12N02E33P003M,None
12N04E03N001M,American Basin Well 1 deep screen 950-970 ft bgs       ,AB-1 Deep           ,38.9116,-121.5238,NAD83     ,48.96,Sutter,http://wdl.water.ca.gov/waterdatalibrary/docs/Hydstra/index.cfm?site=12N04E03N001M,"12N04E03N001M is part of a nested well.  Other wells in the nest are 12N04E03N002,3,4M. DWR surveyed site, new elevation reflects surveyed results in 1/14/15 Sacramento Valley NCRO Well Site Survey Report"
12N04E03N002M,American Basin Well 1 middle-deep screen 680-700 ft bgs,AB-1 Middle-Deep    ,38.9116,-121.5238,NAD83     ,48.96,Sutter,http://wdl.water.ca.gov/waterdatalibrary/docs/Hydstra/index.cfm?site=12N04E03N002M,"12N04E03N002M is part of a nested well.  Other wells in the nest are 12N04E03N001,3,4M. DWR surveyed site, new elevation reflects surveyed results in 1/14/15 Sacramento Valley NCRO Well Site Survey Report"
12N04E03N003M,"Am. Basin Well 1  mid-shall scrn 390-400,510-520 ft bgs",AB-1 Middle-Shallow ,38.9116,-121.5238,NAD83     ,48.96,Sutter,http://wdl.water.ca.gov/waterdatalibrary/docs/Hydstra/index.cfm?site=12N04E03N003M,"12N04E03N003M is part of a nested well.  Other wells in the nest are 12N04E03N001,2,4M. DWR surveyed site, new elevation reflects surveyed results in 1/14/15 Sacramento Valley NCRO Well Site Survey Report"
12N04E03N004M,American Basin Well 1 shallow screen 170-180 ft bgs    ,AB-1 Shallow        ,38.9116,-121.5238,NAD83     ,48.96,Sutter,http://wdl.water.ca.gov/waterdatalibrary/docs/Hydstra/index.cfm?site=12N04E03N004M,"12N04E03N004M is part of a nested well.  Other wells in the nest are 12N04E03N001,2,3M. DWR surveyed site, new elevation reflects surveyed results in 1/14/15 Sacramento Valley NCRO Well Site Survey Report"
12N04E26J002M,American Basin Well 2 deep screen 670-690 ft bgs       ,AB-2 Deep           ,38.8594,-121.4885,NAD83     ,51.62,Sutter,http://wdl.water.ca.gov/waterdatalibrary/docs/Hydstra/index.cfm?site=12N04E26J002M,"12N04E26J002M is part of a nested well.  Other wells in the nest are 12N04E26J003,4M. DWR surveyed site, new elevation reflects surveyed results in 1/14/15 Sacramento Valley NCRO Well Site Survey Report"
12N04E26J003M,"American Basin Well 2 mid screen 380-390,480-490 ft bgs",AB-2 Middle         ,38.8594,-121.4885,NAD83     ,51.62,Sutter,http://wdl.water.ca.gov/waterdatalibrary/docs/Hydstra/index.cfm?site=12N04E26J003M,"12N04E26J003M is part of a nested well.  Other wells in the nest are 12N04E26J002,4M. DWR surveyed site, new elevation reflects surveyed results in 1/14/15 Sacramento Valley NCRO Well Site Survey Report"
12N04E26J004M,American Basin Well 2 shallow screen 135-145 ft bgs    ,AB-2 Shallow        ,38.8594,-121.4885,NAD83     ,51.62,Sutter,http://wdl.water.ca.gov/waterdatalibrary/docs/Hydstra/index.cfm?site=12N04E26J004M,"12N04E26J004M is part of a nested well.  Other wells in the nest are 12N04E26J002,3M. DWR surveyed site, new elevation reflects surveyed results in 1/14/15 Sacramento Valley NCRO Well Site Survey Report"
13N01E21B002M,LCB Well 2 Middle screen 313-333 ft bgs                ,LCB-2 Middle        ,38.96894,-121.86534499999999,NAD83     ,27.55,Colusa,http://wdl.water.ca.gov/waterdatalibrary/docs/Hydstra/index.cfm?site=13N01E21B002M,"This well was drilled on 05/26-6/1/98 and constructed on 12/7-10/98 as part of a triple completion well. The Shallow and Deep zones were destroyed in 2010. Data logger in the shallow zone was deployed in 07/01/2009 by Northern Region. North Central Region took over data uploading responsibilities in Jan 2013. -ESmith (2/4/2013). DWR surveyed site, new elevation reflects surveyed results in 1/14/15 Sacramento Valley NCRO Well Site Survey Report"
13N01E22A001M,LCB Well 3 deep screen 670-680 ft bgs                  ,LCB-3 Deep          ,38.9669,-121.844,NAD83     ,36.56,Colusa,http://wdl.water.ca.gov/waterdatalibrary/docs/Hydstra/index.cfm?site=13N01E22A001M,"13N01E22A001M is part of a nested well.  The other well in the nest is 13N01E22A002M. DWR surveyed site, new elevation reflects surveyed results in 1/14/15 Sacramento Valley NCRO Well Site Survey Report"
13N01E22A002M,"LCB Well 3 shall scrn 410-420,480-490 ft bgs           ",LCB-3 Shallow       ,38.9669,-121.844,NAD83     ,36.56,Colusa,http://wdl.water.ca.gov/waterdatalibrary/docs/Hydstra/index.cfm?site=13N01E22A002M,"13N01E22A002M is part of a nested well.  The other well in the nest is 13N01E22A001M. DWR surveyed site, new elevation reflects surveyed results in 1/14/15 Sacramento Valley NCRO Well Site Survey Report"
13N01E24G002M,Flood Monitoring Well 1A deep screen 240-300 ft bgs    ,Flood MW-1A deep    ,38.9605,-121.8102,NAD83     ,29.83,Sutter,http://wdl.water.ca.gov/waterdatalibrary/docs/Hydstra/index.cfm?site=13N01E24G002M,"13N01E24G002M is part of a nested well.  Other wells in the nest are 13N01E24G003,4M. DWR surveyed site, new elevation reflects surveyed results in 1/14/15 Sacramento Valley NCRO Well Site Survey Report"
13N01E24G003M,Flood Monitoring Well 1B middle screen 130-160 ft bgs  ,Flood MW-1B middle  ,38.9605,-121.8102,NAD83     ,29.83,Sutter,http://wdl.water.ca.gov/waterdatalibrary/docs/Hydstra/index.cfm?site=13N01E24G003M,"13N01E24G003M is part of a nested well.  Other wells in the nest are 13N01E24G002,4M. DWR surveyed site, new elevation reflects surveyed results in 1/14/15 Sacramento Valley NCRO Well Site Survey Report"
13N01E24G004M,Flood Monitoring Well 1C shallow screen 70-90 ft bgs   ,Flood MW-1C shallow ,38.9605,-121.8102,NAD83     ,29.83,Sutter,http://wdl.water.ca.gov/waterdatalibrary/docs/Hydstra/index.cfm?site=13N01E24G004M,"13N01E24G004M is part of a nested well.  Other wells in the nest are 13N01E24G002,3M. DWR surveyed site, new elevation reflects surveyed results in 1/14/15 Sacramento Valley NCRO Well Site Survey Report"
13N01W13P001M,LCB Well 1 deep screen 865-875 ft bgs                  ,LCB-1 Deep          ,38.969338,-121.925785,NAD83     ,32.23,Colusa,http://wdl.water.ca.gov/waterdatalibrary/docs/Hydstra/index.cfm?site=13N01W13P001M,"13N01W13P001M is part of a nested well.  Other wells in the nest are 13N01W13P002,3M. DWR surveyed site, new elevation reflects surveyed results in 1/14/15 Sacramento Valley NCRO Well Site Survey Report"
13N01W13P002M,"LCB Well 1 mid scrn 410-420,460-470 ft bgs             ",LCB-1 Middle        ,38.969338,-121.925785,NAD83     ,32.23,Colusa,http://wdl.water.ca.gov/waterdatalibrary/docs/Hydstra/index.cfm?site=13N01W13P002M,"13N01W13P002M is part of a nested well.  Other wells in the nest are 13N01W13P001,3M. DWR surveyed site, new elevation reflects surveyed results in 1/14/15 Sacramento Valley NCRO Well Site Survey Report"
13N01W13P003M,LCB Well 1 shallow screen 271-281 ft bgs               ,LCB-1 Shallow       ,38.969338,-121.925785,NAD83     ,32.23,Colusa,http://wdl.water.ca.gov/waterdatalibrary/docs/Hydstra/index.cfm?site=13N01W13P003M,"13N01W13P003M is part of a nested well.  Other wells in the nest are 13N01W13P001,2M. DWR surveyed site, new elevation reflects surveyed results in 1/14/15 Sacramento Valley NCRO Well Site Survey Report"
13N03E06A001M,Sutter County MW-6A Shallow screen 45-55 FT BGS        ,SCMW-6A             ,39.00864169,-121.67187959999998,NAD83     ,35.546,Sutter,http://wdl.water.ca.gov/waterdatalibrary/docs/Hydstra/index.cfm?site=13N03E06A001M,"13N03E06A001M is part of a nested well.  Other wells in the nest are 13N03E06A002M, and 3M."
13N03E06A002M,Sutter County MW-6B Middle screen 155-165 FT BGS       ,SCMW-6B             ,39.00864169,-121.67187959999998,NAD83     ,35.546,Sutter,http://wdl.water.ca.gov/waterdatalibrary/docs/Hydstra/index.cfm?site=13N03E06A002M,"13N03E06A002M is part of a nested well.  Other wells in the nest are 13N03E06A001M, and 3M."
13N03E06A003M,Sutter County MW-6C Deep screen 245-255 FT BGS         ,SCMW-6C             ,39.00864169,-121.67187959999998,NAD83     ,35.546,Sutter,http://wdl.water.ca.gov/waterdatalibrary/docs/Hydstra/index.cfm?site=13N03E06A003M,"13N03E06A003M is part of a nested well.  Other wells in the nest are 13N03E06A001M, and 2M."
13N03E26J002M,Sutter County MW-4A shallow screen 145 to 165 ft bgs   ,SCMW-4A             ,38.945159000000004,-121.599153,NAD83     ,37.080999999999996,Sutter,http://wdl.water.ca.gov/waterdatalibrary/docs/Hydstra/index.cfm?site=13N03E26J002M,"13N03E26J002M is part of a nested well.  Other wells in the nest are 13N03E26J003, 4, and 5M."
13N03E26J003M,Sutter Co MW-4B mid-shallow screen 425 to 435 ft bgs   ,SCMW-4B             ,38.945159000000004,-121.599153,NAD83     ,37.080999999999996,Sutter,http://wdl.water.ca.gov/waterdatalibrary/docs/Hydstra/index.cfm?site=13N03E26J003M,"13N03E26J003M is part of a nested well.  Other wells in the nest are 13N03E26J002, 4, and 5M."
13N03E26J004M,Sutter Co MW-4c mid-deep screen 590 to 600 ft bgs      ,SCMW-4C             ,38.945159000000004,-121.599153,NAD83     ,37.080999999999996,Sutter,http://wdl.water.ca.gov/waterdatalibrary/docs/Hydstra/index.cfm?site=13N03E26J004M,"13N03E26J004M is part of a nested well.  Other wells in the nest are 13N03E26J002, 3, and 5M."
13N03E26J005M,Sutter County MW-4D deep screen 995 to 1005 ft bgs     ,SCMW-4D             ,38.945159000000004,-121.599153,NAD83     ,37.080999999999996,Sutter,http://wdl.water.ca.gov/waterdatalibrary/docs/Hydstra/index.cfm?site=13N03E26J005M,"13N03E26J005M is part of a nested well.  Other wells in the nest are 13N03E26J002, 3, and 4M."
13N04E11J001M,Rio Oso Grove Ag Well 1 screen 144-360 ft bgs          ,ROG-1               ,38.9883,-121.4883,NAD83     ,61.38,Sutter,http://wdl.water.ca.gov/waterdatalibrary/docs/Hydstra/index.cfm?site=13N04E11J001M,This is an agricultural production well currently in use by Rio Oso Groves
13N04E11R002M,Bear River Well 1B middle-shallow screen 78-97 ft bgs  ,BR-1B middle-shallow,38.9857,-121.488,NAD83     ,63.3,Sutter,http://wdl.water.ca.gov/waterdatalibrary/docs/Hydstra/index.cfm?site=13N04E11R002M,"13N04E11R002M is part of a nested well.  Other wells in the nest are 13N04E11R003,4,5M."
13N04E11R003M,Bear River Well 1C middle-deep screen 215-244 ft bgs   ,BR-1C middle-deep   ,38.9857,-121.488,NAD83     ,63.2,Sutter,http://wdl.water.ca.gov/waterdatalibrary/docs/Hydstra/index.cfm?site=13N04E11R003M,"13N04E11R003M is part of a nested well.  Other wells in the nest are 13N04E11R002,4,5M."
13N04E11R004M,Bear River Well 1D deep screen 320-330 ft bgs          ,BR-1D deep          ,38.9857,-121.488,NAD83     ,63.1,Sutter,http://wdl.water.ca.gov/waterdatalibrary/docs/Hydstra/index.cfm?site=13N04E11R004M,"13N04E11R004M is part of a nested well.  Other wells in the nest are 13N04E11R002,3,5M."
13N04E11R005M,Bear River Well 1A shallow screen 28-48 ft bgs         ,BR-1A shallow       ,38.9857,-121.488,NAD83     ,63.4,Sutter,http://wdl.water.ca.gov/waterdatalibrary/docs/Hydstra/index.cfm?site=13N04E11R005M,"13N04E11R005M is part of a nested well.  Other wells in the nest are 13N04E11R002,3,4M."
13N11W17Q001M,Sanel Valley Well 1 screen 84-103 ft bgs               ,SV-1                ,38.981237,-123.08891100000001,NAD83     ,520.0,Mendocino,http://wdl.water.ca.gov/waterdatalibrary/docs/Hydstra/index.cfm?site=13N11W17Q001M,None
13N11W19H001M,Sanel Valley Well 2A screen 24-43 ft bgs               ,SV-2A               ,38.9722,-123.1033,NAD83     ,495.0,Mendocino,http://wdl.water.ca.gov/waterdatalibrary/docs/Hydstra/index.cfm?site=13N11W19H001M,None
13N11W19H002M,Sanel Valley Well 2B screen 57-66 ft bgs               ,SV-2B               ,38.9722,-123.1033,NAD83     ,495.0,Mendocino,http://wdl.water.ca.gov/waterdatalibrary/docs/Hydstra/index.cfm?site=13N11W19H002M,None
13N14W11B001M,Anderson Valley Well 1A screen 37-46 ft bgs            ,AV-1A               ,39.0047,-123.3685,NAD83     ,400.0,Mendocino,http://wdl.water.ca.gov/waterdatalibrary/docs/Hydstra/index.cfm?site=13N14W11B001M,None
13N14W11B002M,Anderson Valley Well 1B screen 138-167 ft bgs          ,AV-1B               ,39.0047,-123.3685,NAD83     ,400.0,Mendocino,http://wdl.water.ca.gov/waterdatalibrary/docs/Hydstra/index.cfm?site=13N14W11B002M,None
14N01E35P001M,COL_35P001M screen interval 985 to 995 ft bgs          ,Screen: 985-995 ft  ,39.01259212,-121.82914379,NAD83     ,46.88,Colusa,http://wdl.water.ca.gov/waterdatalibrary/docs/Hydstra/index.cfm?site=14N01E35P001M,None
14N01E35P002M,COL_35P002M screen interval 545 to 705 ft bgs          ,Screen: 545-705 ft  ,39.01259212,-121.82914379,NAD83     ,46.88,Colusa,http://wdl.water.ca.gov/waterdatalibrary/docs/Hydstra/index.cfm?site=14N01E35P002M,None
14N01E35P003M,COL_35P003M screen interval 135 to 225 ft bgs          ,Screen: 135-225 ft  ,39.01259212,-121.82914379,NAD83     ,46.88,Colusa,http://wdl.water.ca.gov/waterdatalibrary/docs/Hydstra/index.cfm?site=14N01E35P003M,None
14N01E35P004M,COL_35P004M screen interval 50 to 60 ft bgs            ,Screen: 50-60 ft    ,39.01259212,-121.82914379,NAD83     ,46.88,Colusa,http://wdl.water.ca.gov/waterdatalibrary/docs/Hydstra/index.cfm?site=14N01E35P004M,None
14N02E17C001M,Sutter County MW-1A shallow screen 33-53 ft bgs        ,SCMW-1A Shallow     ,39.06955,-121.77784,NAD83     ,33.0,Sutter,http://wdl.water.ca.gov/waterdatalibrary/docs/Hydstra/index.cfm?site=14N02E17C001M,"14N02E17C001M is part of a nested well.  Other wells in the nest are 14N02E17C002M,3M,4M."
14N02E17C002M,Sutter County MW-1B Mid-Shallow screen 205-235 ft bgs  ,SCMW-1B Mid-Shallow ,39.06955,-121.77784,NAD83     ,33.0,Sutter,http://wdl.water.ca.gov/waterdatalibrary/docs/Hydstra/index.cfm?site=14N02E17C002M,"14N02E17C002M is part of a nested well.  Other wells in the nest are 14N02E17C001M,3M,4M."
14N02E17C003M,Sutter County MW-1C Mid-deep screen 395-415 ft bgs     ,SCMW-1C Mid-Deep    ,39.06955,-121.77784,NAD83     ,33.0,Sutter,http://wdl.water.ca.gov/waterdatalibrary/docs/Hydstra/index.cfm?site=14N02E17C003M,"14N02E17C003M is part of a nested well.  Other wells in the nest are 14N02E17C001M,2M,4M."
14N02E17C004M,Sutter County MW-1D Deep screen 725-745 ft bgs         ,SCMW-1D Deep        ,39.06955,-121.77784,NAD83     ,33.0,Sutter,http://wdl.water.ca.gov/waterdatalibrary/docs/Hydstra/index.cfm?site=14N02E17C004M,"14N02E17C004M is part of a nested well.  Other wells in the nest are 14N02E17C001M,2M,3M."
14N02E32D001M,Sutter Mutual Water Company MW-1A                      ,SMWC-1A             ,39.0244,-121.7812,NAD83     ,29.4,Sutter,http://wdl.water.ca.gov/waterdatalibrary/docs/Hydstra/index.cfm?site=14N02E32D001M,"14N02E32D001M (shallow) is part of a triple completion monitoring well.  The other wells have SWN's of 14N02E32D002M, and -3M"
14N02E32D002M,Sutter Mutual Water Company MW-1B                      ,SMWC-1B             ,39.0244,-121.7812,NAD83     ,29.4,Sutter,http://wdl.water.ca.gov/waterdatalibrary/docs/Hydstra/index.cfm?site=14N02E32D002M,"14N02E32D002M (middle) is part of a triple completion monitoring well.  The other wells have SWN's of 14N02E32D001M, and -3M"
14N02E32D003M,Sutter Mutual Water Company MW-1C                      ,SMWC-1C             ,39.0244,-121.7812,NAD83     ,29.4,Sutter,http://wdl.water.ca.gov/waterdatalibrary/docs/Hydstra/index.cfm?site=14N02E32D003M,"14N02E32D003M (deep) is part of a triple completion monitoring well.  The other wells have SWN's of 14N02E32D001M, and -2M"
14N03E23D003M,Feather River Well 1A shallow screen 40-60 ft bgs      ,FR-1A Shallow       ,39.045823,-121.611448,NAD83     ,52.05,Sutter,http://wdl.water.ca.gov/waterdatalibrary/docs/Hydstra/index.cfm?site=14N03E23D003M,"14N03E23D003M is part of a nested well and a cluster.  Other wells in the nest are 14N03E23D004,5M.  The other well in the cluster is 14N03E23D006M."
14N03E23D004M,Feather River Well 1B mid-shallow screen 235-255 ft bgs,FR-1B Middle Shallow,39.045823,-121.611448,NAD83     ,52.05,Sutter,http://wdl.water.ca.gov/waterdatalibrary/docs/Hydstra/index.cfm?site=14N03E23D004M,"14N03E23D004M is part of a nested well and a cluster.  Other wells in the nest are 14N03E23D003,5M.  The other well in the cluster is 14N03E23D006M."
14N03E23D005M,Feather River Well 1C middle-deep screen 664-684 ft bgs,FR-1C Middle Deep   ,39.045823,-121.611448,NAD83     ,52.05,Sutter,http://wdl.water.ca.gov/waterdatalibrary/docs/Hydstra/index.cfm?site=14N03E23D005M,"14N03E23D005M is part of a nested well and a cluster.  Other wells in the nest are 14N03E23D003,4M.  The other well in the cluster is 14N03E23D006M."
14N03E23D006M,Feather River Well 1D deep screen 996-1016 ft bgs      ,FR-1D Deep          ,39.045823,-121.611448,NAD83     ,50.73,Sutter,http://wdl.water.ca.gov/waterdatalibrary/docs/Hydstra/index.cfm?site=14N03E23D006M,"14N03E23D006M is part of a well cluster.  Other wells in the cluster are 14N03E23D003,4,5M (nested well)."
15N03W20Q001M,Col_20Q001M screen interval 370 to 410 ft bgs          ,Screen: 370-410 ft  ,39.13292342,-122.2164531,NAD83     ,128.56,Colusa,http://wdl.water.ca.gov/waterdatalibrary/docs/Hydstra/index.cfm?site=15N03W20Q001M,None
15N03W20Q002M,Col_20Q002M screen interval 130 to 160 ft bgs          ,Screen: 130-160 ft  ,39.13292342,-122.2164531,NAD83     ,128.56,Colusa,http://wdl.water.ca.gov/waterdatalibrary/docs/Hydstra/index.cfm?site=15N03W20Q002M,None
15N03W20Q003M,Col_20Q003M screen interval 30 to 80 ft                ,Screen: 30-80 ft    ,39.13292342,-122.2164531,NAD83     ,128.56,Colusa,http://wdl.water.ca.gov/waterdatalibrary/docs/Hydstra/index.cfm?site=15N03W20Q003M,None
15N04E04R002M,Yuba River Well 1A shallow screen 70-80 ft bgs         ,YR-1A shallow       ,39.17588,-121.52401499999999,NAD83     ,88.07,Yuba,http://wdl.water.ca.gov/waterdatalibrary/docs/Hydstra/index.cfm?site=15N04E04R002M,"15N04E04R002M is part of a nested well and a well cluster.  Other wells in the nest are 15N04E04R003,4,5M.  The other well in the cluster is 15N04E04R006M."
15N04E04R003M,Yuba River Well 1B middle-shallow screen 250-260 ft bgs,YR-1B middle-shallow,39.17588,-121.52401499999999,NAD83     ,88.07,Yuba,http://wdl.water.ca.gov/waterdatalibrary/docs/Hydstra/index.cfm?site=15N04E04R003M,"15N04E04R003M is part of a nested well and a well cluster.  Other wells in the nest are 15N04E04R002,4,5M.  The other well in the cluster is 15N04E04R006M."
15N04E04R004M,Yuba River Well 1C middle-deep screen 430-450 ft bgs   ,YR-1C middle-deep   ,39.17588,-121.52401499999999,NAD83     ,88.07,Yuba,http://wdl.water.ca.gov/waterdatalibrary/docs/Hydstra/index.cfm?site=15N04E04R004M,"15N04E04R004M is part of a nested well and a well cluster.  Other wells in the nest are 15N04E04R002,3,5M.  The other well in the cluster is 15N04E04R006M."
15N04E04R005M,Yuba River Well 1D deep screen 600-620 ft bgs          ,YR-1D deep          ,39.17588,-121.52401499999999,NAD83     ,88.07,Yuba,http://wdl.water.ca.gov/waterdatalibrary/docs/Hydstra/index.cfm?site=15N04E04R005M,"15N04E04R005M is part of a nested well and a well cluster.  Other wells in the nest are 15N04E04R002,3,4M.  The other well in the cluster is 15N04E04R006M."
15N04E04R006M,Yuba River Well 2 screen 20-40 ft bgs                  ,YR-2                ,39.175737,-121.52407600000001,NAD83     ,88.07,Yuba,http://wdl.water.ca.gov/waterdatalibrary/docs/Hydstra/index.cfm?site=15N04E04R006M,"15N04E04R006M is part of a well cluster.  Other wells in the cluster are 15N04E04R002,3,4,5M (nested well)."
16N02W05B001M,COL_05B001M screen interval 730 to 750 ft bgs          ,Screen: 730-750 ft  ,39.27532006,-122.1056841,NAD83     ,65.0,Colusa,http://wdl.water.ca.gov/waterdatalibrary/docs/Hydstra/index.cfm?site=16N02W05B001M,None
16N02W05B002M,COL_05B002M screen interval 462 to 473 ft bgs          ,Screen: 462-473 ft  ,39.27532006,-122.1056841,NAD83     ,65.0,Colusa,http://wdl.water.ca.gov/waterdatalibrary/docs/Hydstra/index.cfm?site=16N02W05B002M,None
16N02W05B003M,COL_05B003M screen interval 174 to 255 bgs             ,Screen: 174-255 ft  ,39.27532006,-122.1056841,NAD83     ,65.0,Colusa,http://wdl.water.ca.gov/waterdatalibrary/docs/Hydstra/index.cfm?site=16N02W05B003M,None
16N02W05B004M,COL_05B004M screen interval 461 to 771 bgs             ,Screen: 461-771 ft  ,39.585502000000005,-122.11698759999999,NAD83     ,65.0,Colusa,http://wdl.water.ca.gov/waterdatalibrary/docs/Hydstra/index.cfm?site=16N02W05B004M,None
16N03E17J001M,Sutter County MW-3A shallow screen 65-75 ft bgs        ,SCMW-3A Shallow     ,39.239358,-121.65086000000001,NAD83     ,77.354,Sutter,http://wdl.water.ca.gov/waterdatalibrary/docs/Hydstra/index.cfm?site=16N03E17J001M,"16N03E17J001M is part of a nested well.  Other wells in the nest are 16N03E17J002M,3M,4M,5M."
16N03E17J002M,Sutter County MW-3B mid-shallow screen 285-305 ft bgs  ,SCMW-3B Mid-Shallow ,39.239358,-121.65086000000001,NAD83     ,77.354,Sutter,http://wdl.water.ca.gov/waterdatalibrary/docs/Hydstra/index.cfm?site=16N03E17J002M,"16N03E17J002M is part of a nested well.  Other wells in the nest are 16N03E17J001M,3M,4M,5M."
16N03E17J003M,Sutter County MW-3C mid-middle screen 400-420 ft bgs   ,SCMW-3C Mid-Middle  ,39.239358,-121.65086000000001,NAD83     ,77.354,Sutter,http://wdl.water.ca.gov/waterdatalibrary/docs/Hydstra/index.cfm?site=16N03E17J003M,"16N03E17J003M is part of a nested well.  Other wells in the nest are 16N03E17J001M,2M,4M,5M."
16N03E17J004M,Sutter County MW-3D middle-deep screen 595-605 ft bgs  ,SCMW-3D Mid-Deep    ,39.239358,-121.65086000000001,NAD83     ,77.354,Sutter,http://wdl.water.ca.gov/waterdatalibrary/docs/Hydstra/index.cfm?site=16N03E17J004M,"16N03E17J004M is part of a nested well.  Other wells in the nest are 16N03E17J001M,2M,3M,5M."
16N03E17J005M,Sutter County MW-3E deep screen 765-775 ft bgs         ,SCMW-3E Deep        ,39.239358,-121.65086000000001,NAD83     ,77.354,Sutter,http://wdl.water.ca.gov/waterdatalibrary/docs/Hydstra/index.cfm?site=16N03E17J005M,"16N03E17J005M is part of a nested well.  Other wells in the nest are 16N03E17J001M,2M,3M,4M."
16N03E36M001M,Yuba County Water Agency Well 1 screen 140-160 ft bgs  ,YCWA-01             ,39.1975,-121.594,NAD83     ,68.0,Yuba,http://wdl.water.ca.gov/waterdatalibrary/docs/Hydstra/index.cfm?site=16N03E36M001M,None
16N03W14H003M,Col_14H003M screen interval 1370 to 1420 ft bgs        ,Screen: 1370-1420 ft,39.24146,-122.15348,NAD83     ,65.7,Colusa,http://wdl.water.ca.gov/waterdatalibrary/docs/Hydstra/index.cfm?site=16N03W14H003M,None
16N03W14H004M,Col_14H004M screen interval 1140 to 1180 ft            ,Screen: 1140-1180 ft,39.24146,-122.15348,NAD83     ,65.7,Colusa,http://wdl.water.ca.gov/waterdatalibrary/docs/Hydstra/index.cfm?site=16N03W14H004M,None
16N03W14H005M,Col_14H005M screened interval 720 to 730 ft bgs        ,Screen: 720-730 ft  ,39.24146,-122.15348,NAD83     ,65.7,Colusa,http://wdl.water.ca.gov/waterdatalibrary/docs/Hydstra/index.cfm?site=16N03W14H005M,None
16N03W14H006M,Col_14H006M screen interval 295 to 305 ft bgs          ,Screen: 295-305 ft  ,39.24146,-122.15348,NAD83     ,65.7,Colusa,http://wdl.water.ca.gov/waterdatalibrary/docs/Hydstra/index.cfm?site=16N03W14H006M,None
17N01E17F002M,BUT_17F002M screen interval 312 to 332 bgs             ,Wild Goose Inter.   ,39.32573717,-121.88295722,NAD83     ,59.35,Butte,http://wdl.water.ca.gov/waterdatalibrary/docs/Hydstra/index.cfm?site=17N01E17F002M,None
17N01E17F003M,But_17F003M screen interval 505 to 535 bgs             ,Wild Goose Deep     ,39.32573717,-121.88295722,NAD83     ,59.35,Butte,http://wdl.water.ca.gov/waterdatalibrary/docs/Hydstra/index.cfm?site=17N01E17F003M,None
17N01E24A003M,BUT_24A003M screen interval 770 to 790 bgs             ,Screen: 770-790 ft  ,39.316970500000004,-121.8004687,NAD83     ,72.8,Butte,http://wdl.water.ca.gov/waterdatalibrary/docs/Hydstra/index.cfm?site=17N01E24A003M,Gray Lodge lower-middle zone
17N01E24A004M,BUT_24A004M screen interval 371 to 440 bgs             ,Screen: 371-440 ft  ,39.316970500000004,-121.8004687,NAD83     ,72.8,Butte,http://wdl.water.ca.gov/waterdatalibrary/docs/Hydstra/index.cfm?site=17N01E24A004M,Gray Lodge middle zone
17N01E24A005M,BUT_24A005M screen interval 220 to 240 bgs             ,Screen: 220-240 ft  ,39.316970500000004,-121.8004687,NAD83     ,72.8,Butte,http://wdl.water.ca.gov/waterdatalibrary/docs/Hydstra/index.cfm?site=17N01E24A005M,Gray Lodge upper-middle zone
17N01E24A006M,BUT_24A006M screen interval 45 to 55 bgs               ,Screen: 45-55 ft    ,39.316970500000004,-121.8004687,NAD83     ,72.8,Butte,http://wdl.water.ca.gov/waterdatalibrary/docs/Hydstra/index.cfm?site=17N01E24A006M,Gray Lodge shallow
17N01W10A001M,COL_10A001M screen interval 770-800 ft bgs             ,Screen: 770-800 ft  ,39.34377207,-121.9521389,NAD83     ,64.28,Colusa,http://wdl.water.ca.gov/waterdatalibrary/docs/Hydstra/index.cfm?site=17N01W10A001M,None
17N01W10A002M,COL_10A002M screen interval 380-425 ft bgs             ,Screen: 380-425 ft  ,39.34377207,-121.95210890000001,NAD83     ,64.28,Colusa,http://wdl.water.ca.gov/waterdatalibrary/docs/Hydstra/index.cfm?site=17N01W10A002M,None
17N01W10A003M,COL_10A003M screen interval 148 to 158 ft bgs.         ,Screen: 148-158 ft  ,39.34377207,-121.95210890000001,NAD83     ,64.28,Colusa,http://wdl.water.ca.gov/waterdatalibrary/docs/Hydstra/index.cfm?site=17N01W10A003M,None
17N01W10A004M,COL_10A004M screen interval 88 to 98 ft bgs            ,Screen: 88-98 ft    ,39.34377207,-121.95210890000001,NAD83     ,64.28,Colusa,http://wdl.water.ca.gov/waterdatalibrary/docs/Hydstra/index.cfm?site=17N01W10A004M,None
17N01W27A001M,Col_27A001M screen interval 430 to 510 ft bgs          ,Screen: 430-510 ft  ,39.30083822,-121.93193486,NAD83     ,66.61,Colusa,http://wdl.water.ca.gov/waterdatalibrary/docs/Hydstra/index.cfm?site=17N01W27A001M,None
17N01W27A002M,Col_27A002M screened interval 260 to 270 ft bgs        ,Screen: 260-270 ft  ,39.30083822,-121.93193486,NAD83     ,66.61,Colusa,http://wdl.water.ca.gov/waterdatalibrary/docs/Hydstra/index.cfm?site=17N01W27A002M,None
17N01W27A003M,Col_27A003M screeened interval 160 to 170 ft bgs       ,Screen: 160-170 ft  ,39.30083822,-121.93193486,NAD83     ,66.61,Colusa,http://wdl.water.ca.gov/waterdatalibrary/docs/Hydstra/index.cfm?site=17N01W27A003M,None
17N02E25J001M,SUT_25J001M screen interval 490 to 590 bgs             ,BWD MW1 A - Deep    ,39.2968077,-121.69035624,NAD83     ,78.0,Sutter,http://wdl.water.ca.gov/waterdatalibrary/docs/Hydstra/index.cfm?site=17N02E25J001M,None
17N02E25J002M,SUT_25J002M SCREEN INTERVAL 170 to 210 BGS             ,Screen: 170-210 ft  ,39.2968077,-121.69035624,NAD83     ,78.0,Sutter,http://wdl.water.ca.gov/waterdatalibrary/docs/Hydstra/index.cfm?site=17N02E25J002M,None
17N02E25J003M,SUT_25J003M screen interval 40 to 80 bgs               ,BWD MW1 C - Shallow ,39.2968077,-121.69035624,NAD83     ,78.0,Sutter,http://wdl.water.ca.gov/waterdatalibrary/docs/Hydstra/index.cfm?site=17N02E25J003M,None
17N02W09H002M,COL_09H002M screen interval 779 to 800 bgs             ,Screen: 779-800 ft  ,39.34169431,-122.0838933,NAD83     ,67.0,Colusa,http://wdl.water.ca.gov/waterdatalibrary/docs/Hydstra/index.cfm?site=17N02W09H002M,None
17N02W09H003M,COL_09H003M screen interval 460 to 520 bgs             ,Screen: 460-520 ft  ,39.34169431,-122.0838933,NAD83     ,67.0,Colusa,http://wdl.water.ca.gov/waterdatalibrary/docs/Hydstra/index.cfm?site=17N02W09H003M,None
17N02W09H004M,COL_09H004M screen interval 250 to 260 bgs             ,Screen: 250-260 ft  ,39.34169431,-122.0838933,NAD83     ,67.0,Colusa,http://wdl.water.ca.gov/waterdatalibrary/docs/Hydstra/index.cfm?site=17N02W09H004M,None
17N02W09H005M,COL_09H005M screen interval 440 to 812 bgs             ,Screen: 440-812 ft  ,39.34165825,-122.08389380000001,NAD83     ,67.0,Colusa,http://wdl.water.ca.gov/waterdatalibrary/docs/Hydstra/index.cfm?site=17N02W09H005M,None
17N03E26A003M,Honcut Creek Well 1 screen 524-554 ft bgs              ,HC-1                ,39.304207,-121.59690400000001,NAD83     ,87.27,Yuba,http://wdl.water.ca.gov/waterdatalibrary/docs/Hydstra/index.cfm?site=17N03E26A003M,None
17N03E26A004M,Honcut Creek Well 2A shallow screen 48-68 ft bgs       ,HC-2A               ,39.304387,-121.5969,NAD83     ,87.5,Yuba,http://wdl.water.ca.gov/waterdatalibrary/docs/Hydstra/index.cfm?site=17N03E26A004M,None
17N03E26A005M,Honcut Creek Well 2B middle screen 172-202 ft bgs      ,HC-2B               ,39.304387,-121.5969,NAD83     ,87.5,Yuba,http://wdl.water.ca.gov/waterdatalibrary/docs/Hydstra/index.cfm?site=17N03E26A005M,None
17N03E26A006M,"Honcut Creek Well 2C deep screen 416-436,466-486 ft bgs",HC-2C               ,39.304387,-121.5969,NAD83     ,87.5,Yuba,http://wdl.water.ca.gov/waterdatalibrary/docs/Hydstra/index.cfm?site=17N03E26A006M,None
18N01E35L001M,BUT_35L001M screen interval 816 to 836 bgs             ,Screen: 816-836 ft  ,39.36895711,-121.8275212,NAD83     ,70.0,Butte,http://wdl.water.ca.gov/waterdatalibrary/docs/Hydstra/index.cfm?site=18N01E35L001M,None
18N01W02E001M,GLE_02E001M screen interval 719 to 729 bgs             ,Screen: 719-729 ft  ,39.44186258,-121.9434473,NAD83     ,78.5,Glenn,http://wdl.water.ca.gov/waterdatalibrary/docs/Hydstra/index.cfm?site=18N01W02E001M,None
18N01W02E002M,GLE_02E002M screen interval 450 to 460 bgs             ,Screen: 450-460 ft  ,39.44187158,-121.94344709999999,NAD83     ,78.5,Glenn,http://wdl.water.ca.gov/waterdatalibrary/docs/Hydstra/index.cfm?site=18N01W02E002M,None
18N01W02E003M,GLE_02E003M screen interval 110 to 120 bgs             ,Screen: 110-120 ft  ,39.44188061,-121.94344699999999,NAD83     ,78.5,Glenn,http://wdl.water.ca.gov/waterdatalibrary/docs/Hydstra/index.cfm?site=18N01W02E003M,None
18N02W18D001M,GLE_18D001M screen interval 975 to 985 bgs             ,Screen: 975-985 ft  ,39.42082722,-122.1457775,NAD83     ,82.43,Glenn,http://wdl.water.ca.gov/waterdatalibrary/docs/Hydstra/index.cfm?site=18N02W18D001M,None
18N02W18D002M,GLE_18D002M screen interval 620 to 680 bgs             ,Screen: 620-680 ft  ,39.42082722,-122.1457775,NAD83     ,82.43,Glenn,http://wdl.water.ca.gov/waterdatalibrary/docs/Hydstra/index.cfm?site=18N02W18D002M,None
18N02W18D003M,GLE_18D003M screen interval 510 to 520 bgs             ,Screen: 510-520 ft  ,39.42082722,-122.1457775,NAD83     ,82.43,Glenn,http://wdl.water.ca.gov/waterdatalibrary/docs/Hydstra/index.cfm?site=18N02W18D003M,None
18N02W18D004M,GLE_18D004M screen interval 246 to 256 bgs             ,Screen: 246-256 ft  ,39.42082722,-122.1457775,NAD83     ,82.43,Glenn,http://wdl.water.ca.gov/waterdatalibrary/docs/Hydstra/index.cfm?site=18N02W18D004M,None
19N01E35B001M,BUT_35B001M screen interval 85 to 135 bgs              ,Screen: 85-135 ft   ,39.46190278,-121.82702079999999,NAD83     ,86.5,Butte,http://wdl.water.ca.gov/waterdatalibrary/docs/Hydstra/index.cfm?site=19N01E35B001M,None
19N01E35B002M,BUT_35B002M screen interval 930 to 950 bgs             ,Screen: 930-950 ft  ,39.46190278,-121.82702079999999,NAD83     ,86.5,Butte,http://wdl.water.ca.gov/waterdatalibrary/docs/Hydstra/index.cfm?site=19N01E35B002M,None
19N01E35B003M,BUT_35B003M screen interval 490 to 510 bgs             ,Screen: 490-510 ft  ,39.46190278,-121.82702079999999,NAD83     ,86.5,Butte,http://wdl.water.ca.gov/waterdatalibrary/docs/Hydstra/index.cfm?site=19N01E35B003M,None
19N01W22D004M,GLE_22D004M screen interval 780 to 790 bgs             ,Screen: 780-790 ft  ,39.49270183,-121.96480840000001,NAD83     ,87.38,Glenn,http://wdl.water.ca.gov/waterdatalibrary/docs/Hydstra/index.cfm?site=19N01W22D004M,Larrabee Deep Zone
19N01W22D005M,GLE_22D005M screen interval 520 to 530 bgs             ,Screen: 520-530 ft  ,39.49270183,-121.96480840000001,NAD83     ,87.38,Glenn,http://wdl.water.ca.gov/waterdatalibrary/docs/Hydstra/index.cfm?site=19N01W22D005M,Larrabee Mid Deep Zone
19N01W22D006M,GLE_22D006M screen interval 340 to 350 bgs             ,Screen: 340-350 ft  ,39.49270183,-121.96480840000001,NAD83     ,87.38,Glenn,http://wdl.water.ca.gov/waterdatalibrary/docs/Hydstra/index.cfm?site=19N01W22D006M,Larrabee Mid Shallow Zone
19N01W22D007M,GLE_22D007M screen interval 80 to 90 bgs               ,Screen: 80-90 ft    ,39.49270183,-121.96480840000001,NAD83     ,87.38,Glenn,http://wdl.water.ca.gov/waterdatalibrary/docs/Hydstra/index.cfm?site=19N01W22D007M,Larrabee Shallow
19N01W32E003M,GLE_32E003M screen interval 45 to 310 bgs              ,Screen: 45-310 ft   ,39.45725247,-122.0015983,NAD83     ,89.26,Glenn,http://wdl.water.ca.gov/waterdatalibrary/docs/Hydstra/index.cfm?site=19N01W32E003M,None
19N02E07K002M,BUT_07K002M screen interval 560 to 570 bgs             ,Screen: 560-570 ft  ,39.51180692,-121.78802830000001,NAD83     ,102.7,Butte,http://wdl.water.ca.gov/waterdatalibrary/docs/Hydstra/index.cfm?site=19N02E07K002M,Boeger - Sheppard
19N02E07K003M,BUT_07K003M screen interval 330 to 340 bgs             ,Screen: 330-340 ft  ,39.51180692,-121.78802830000001,NAD83     ,102.7,Butte,http://wdl.water.ca.gov/waterdatalibrary/docs/Hydstra/index.cfm?site=19N02E07K003M,Boeger - Sheppard Middle Zone
19N02E07K004M,BUT_07K004M screen interval 140 to 150 bgs             ,Screen: 140-150 ft  ,39.51180692,-121.78802830000001,NAD83     ,102.7,Butte,http://wdl.water.ca.gov/waterdatalibrary/docs/Hydstra/index.cfm?site=19N02E07K004M,Boeger - Sheppard Shallow Zone
19N02E13Q001M,BUT_13Q001M screen interval 130 to 210 bgs             ,Screen: 130-210 ft  ,39.49447892,-121.6930854,NAD83     ,119.88,Butte,http://wdl.water.ca.gov/waterdatalibrary/docs/Hydstra/index.cfm?site=19N02E13Q001M,LaMalfa Shallow Zone (single)
19N02E13Q002M,BUT_13Q002M screen interval 470 to 480 bgs             ,Screen: 470-480 ft  ,39.49447892,-121.6930854,NAD83     ,119.88,Butte,http://wdl.water.ca.gov/waterdatalibrary/docs/Hydstra/index.cfm?site=19N02E13Q002M,La Malfa Middle Zone (double)
19N02E13Q003M,BUT_13Q003M screen interval 670 to 680 bgs             ,Screen: 670-680 ft  ,39.49447892,-121.6930854,NAD83     ,119.88,Butte,http://wdl.water.ca.gov/waterdatalibrary/docs/Hydstra/index.cfm?site=19N02E13Q003M,LaMalfa Deep Zone (double)
19N02W08Q001M,GLE_08Q001M screen interval 856 to 876 bgs             ,Screen: 856-876 ft  ,39.51595428,-122.1114357,NAD83     ,108.36,Glenn,http://wdl.water.ca.gov/waterdatalibrary/docs/Hydstra/index.cfm?site=19N02W08Q001M,None
19N02W08Q002M,GLE_08Q002M screen interval 208 to 218 bgs             ,Screen: 208-218 ft  ,39.51595428,-122.1114357,NAD83     ,108.36,Glenn,http://wdl.water.ca.gov/waterdatalibrary/docs/Hydstra/index.cfm?site=19N02W08Q002M,None
19N02W08Q003M,GLE_08Q003M screen interval 77 to 87 bgs               ,Screen: 77-87 ft    ,39.51595428,-122.1114357,NAD83     ,108.36,Glenn,http://wdl.water.ca.gov/waterdatalibrary/docs/Hydstra/index.cfm?site=19N02W08Q003M,None
19N02W33K001M,GLE_33K001M screen interval 160 to 260 bgs             ,Screen: 160-260 ft  ,39.45645361,-122.08510600000001,NAD83     ,87.41,Glenn,http://wdl.water.ca.gov/waterdatalibrary/docs/Hydstra/index.cfm?site=19N02W33K001M,None
19N04W14M002M,GLE_14M002M screen interval 45 to 55 bgs               ,Screen: 45-55 ft    ,39.50216875,-122.2838182,NAD83     ,185.83,Glenn,http://wdl.water.ca.gov/waterdatalibrary/docs/Hydstra/index.cfm?site=19N04W14M002M,None
20N01E02H003M,BUT_02H003M screen interval 70 to 180 bgs              ,Screen: 70-180 ft   ,39.61391531,-121.8209992,NAD83     ,132.34,Butte,http://wdl.water.ca.gov/waterdatalibrary/docs/Hydstra/index.cfm?site=20N01E02H003M,None
20N01E18L001M,BUT_18L001M screen interval 767 to 894 bgs             ,Screen: 767-894 ft  ,39.58308025,-121.90737460000001,NAD83     ,107.35,Butte,http://wdl.water.ca.gov/waterdatalibrary/docs/Hydstra/index.cfm?site=20N01E18L001M,None
20N01E18L002M,BUT_18L002M screen interval 509 to 562 bgs             ,Screen: 509-562 ft  ,39.58484747,-121.90846470000001,NAD83     ,107.35,Butte,http://wdl.water.ca.gov/waterdatalibrary/docs/Hydstra/index.cfm?site=20N01E18L002M,None
20N01E18L003M,BUT_18L003M screen interval 98 to 108 bgs              ,Screen: 98-108 ft   ,39.58484747,-121.90846470000001,NAD83     ,107.35,Butte,http://wdl.water.ca.gov/waterdatalibrary/docs/Hydstra/index.cfm?site=20N01E18L003M,None
20N02E09G001M,BUT_09G001M screen interval 130 to 180 bgs             ,Screen: 130-180 ft  ,39.61547939,-121.7391463,NAD83     ,148.84,Butte,http://wdl.water.ca.gov/waterdatalibrary/docs/Hydstra/index.cfm?site=20N02E09G001M,None
20N02E15H001M,BUT_15H001M screen interval 170 to 180 bgs             ,Screen: 170-180 ft  ,39.58744975,-121.72926729999999,NAD83     ,144.01,Butte,http://wdl.water.ca.gov/waterdatalibrary/docs/Hydstra/index.cfm?site=20N02E15H001M,None
20N02E15H002M,BUT_15H002M screen interval 55-65 bgs                  ,Screen: 55-65- ft   ,39.5888,-121.7298,NAD83     ,144.12,Butte,http://wdl.water.ca.gov/waterdatalibrary/docs/Hydstra/index.cfm?site=20N02E15H002M,None
20N02E16P001M,BUT_16P001M screen interval unknown                    ,Screen: Unknown     ,39.58261411,-121.7544834,NAD83     ,131.83,Butte,http://wdl.water.ca.gov/waterdatalibrary/docs/Hydstra/index.cfm?site=20N02E16P001M,None
20N02E24C001M,BUT_24C001M screen interval 124 to 134 bgs             ,Screen: 124-134 ft  ,39.57921761,-121.6978058,NAD83     ,157.75,Butte,http://wdl.water.ca.gov/waterdatalibrary/docs/Hydstra/index.cfm?site=20N02E24C001M,None
20N02E24C002M,BUT_24C002M screen interval 336 to 377 bgs             ,Screen: 336-377 ft  ,39.57921761,-121.6978058,NAD83     ,157.75,Butte,http://wdl.water.ca.gov/waterdatalibrary/docs/Hydstra/index.cfm?site=20N02E24C002M,None
20N02E24C003M,BUT_24C003M screen interval 484 to 505 bgs             ,Screen: 484-505 ft  ,39.57921761,-121.6978058,NAD83     ,157.75,Butte,http://wdl.water.ca.gov/waterdatalibrary/docs/Hydstra/index.cfm?site=20N02E24C003M,None
20N02W11A001M,GLE_11A001M screen interval 70 to 90 bgs               ,Screen: 70-90 ft    ,39.60921433,-122.0449071,NAD83     ,125.4,Glenn,http://wdl.water.ca.gov/waterdatalibrary/docs/Hydstra/index.cfm?site=20N02W11A001M,None
20N02W11A002M,GLE_11A002M screen interval 140 to 160 bgs             ,Screen: 140-160 ft  ,39.60921433,-122.0449071,NAD83     ,125.4,Glenn,http://wdl.water.ca.gov/waterdatalibrary/docs/Hydstra/index.cfm?site=20N02W11A002M,None
20N02W11A003M,GLE_11A003M screen interval 490 to 510 bgs             ,Screen: 490-510 ft  ,39.60921433,-122.0449071,NAD83     ,125.4,Glenn,http://wdl.water.ca.gov/waterdatalibrary/docs/Hydstra/index.cfm?site=20N02W11A003M,None
20N02W18R005M,GLE_18R005M screen interval 920 to 980 bgs             ,Screen: 920-980 ft  ,39.58552019,-122.11701070000001,NAD83     ,131.38,Glenn,http://wdl.water.ca.gov/waterdatalibrary/docs/Hydstra/index.cfm?site=20N02W18R005M,None
20N02W18R006M,GLE_18R006M screen interval 635 to 655 bgs             ,Screen: 635-655 ft  ,39.58552019,-122.11701070000001,NAD83     ,131.38,Glenn,http://wdl.water.ca.gov/waterdatalibrary/docs/Hydstra/index.cfm?site=20N02W18R006M,None
20N02W18R007M,GLE_18R007M screen interval 450 to 526 bgs             ,Screen: 450-526 ft  ,39.58552019,-122.11701070000001,NAD83     ,131.38,Glenn,http://wdl.water.ca.gov/waterdatalibrary/docs/Hydstra/index.cfm?site=20N02W18R007M,None
20N02W18R008M,GLE_18R008M screen interval 140 to 180 bgs             ,Screen: 140-180 ft  ,39.58552019,-122.11701070000001,NAD83     ,131.38,Glenn,http://wdl.water.ca.gov/waterdatalibrary/docs/Hydstra/index.cfm?site=20N02W18R008M,None
20N02W25F001M,GLE_25F001M screen interval 940 to 960 bgs             ,Screen: 940-960 ft  ,39.55949358,-122.0326337,NAD83     ,102.2,Glenn,http://wdl.water.ca.gov/waterdatalibrary/docs/Hydstra/index.cfm?site=20N02W25F001M,None
20N02W25F002M,GLE_25F002M screen interval 420 to 470 bgs             ,Screen: 420-470 ft  ,39.55950261,-122.03263359999998,NAD83     ,102.2,Glenn,http://wdl.water.ca.gov/waterdatalibrary/docs/Hydstra/index.cfm?site=20N02W25F002M,None
20N02W25F003M,GLE_25F003M screen interval 190 to 260 bgs             ,Screen: 190-260 ft  ,39.55951161,-122.0326335,NAD83     ,102.2,Glenn,http://wdl.water.ca.gov/waterdatalibrary/docs/Hydstra/index.cfm?site=20N02W25F003M,None
20N02W25F004M,GLE_25F004M screen interval 55 to 65 bgs               ,Screen: 55-65 ft    ,39.55952061,-122.03263329999999,NAD83     ,102.2,Glenn,http://wdl.water.ca.gov/waterdatalibrary/docs/Hydstra/index.cfm?site=20N02W25F004M,None
20N02W33B001M,GLE_33B001M screen interval 100 to 320 bgs             ,Screen: 100-320 ft  ,39.55022678,-122.0841548,NAD83     ,105.41,Glenn,http://wdl.water.ca.gov/waterdatalibrary/docs/Hydstra/index.cfm?site=20N02W33B001M,None
20N03E31M001M,BUT_31M001M screen interval 130 to 180 bgs             ,Screen: 130-180 ft  ,39.54468372,-121.6875355,NAD83     ,133.02,Butte,http://wdl.water.ca.gov/waterdatalibrary/docs/Hydstra/index.cfm?site=20N03E31M001M,None
20N03E33L001M,BUT_33L001M screen interval unknown                    ,Screen: Unknown     ,39.54152592,-121.6424548,NAD83     ,151.33,Butte,http://wdl.water.ca.gov/waterdatalibrary/docs/Hydstra/index.cfm?site=20N03E33L001M,None
20N03W07E001M,GLE_07E001M screen interval 984 to 1014 bgs            ,Screen: 984-1014 ft ,39.60475217,-122.2496238,NAD83     ,179.175,Glenn,http://wdl.water.ca.gov/waterdatalibrary/docs/Hydstra/index.cfm?site=20N03W07E001M,None
20N03W07E002M,GLE_07E002M screen interval 616 to 636 bgs             ,Screen: 616-636 ft  ,39.60475217,-122.2496238,NAD83     ,179.175,Glenn,http://wdl.water.ca.gov/waterdatalibrary/docs/Hydstra/index.cfm?site=20N03W07E002M,None
20N03W07E003M,GLE_07E003M screen interval 380 to 485 bgs             ,Screen: 380-485 ft  ,39.60475217,-122.2496238,NAD83     ,179.175,Glenn,http://wdl.water.ca.gov/waterdatalibrary/docs/Hydstra/index.cfm?site=20N03W07E003M,None
20N03W07E004M,GLE_07E004M screen interval 118 to 128 bgs             ,Screen: 118-128 ft  ,39.60475217,-122.2496238,NAD83     ,179.175,Glenn,http://wdl.water.ca.gov/waterdatalibrary/docs/Hydstra/index.cfm?site=20N03W07E004M,None
21N01E08K002M,BUT_08K002M screen interval unknown                    ,Screen: Unknown     ,39.68881683,-121.8849979,NAD83     ,146.04,Butte,http://wdl.water.ca.gov/waterdatalibrary/docs/Hydstra/index.cfm?site=21N01E08K002M,None
21N01E13L002M,BUT_13L002M screen interval 735 to 760 bgs             ,CSU Chico Farm Deep ,39.6734804,-121.8144029,WGS84     ,179.85,Butte,http://wdl.water.ca.gov/waterdatalibrary/docs/Hydstra/index.cfm?site=21N01E13L002M,None
21N01E13L003M,BUT_13L003M SCREEN INTERVAL 540 TO 560 BGS             ,CSU CHICO FARM INTER,39.6734804,-121.8144029,WGS84     ,179.85,Butte,http://wdl.water.ca.gov/waterdatalibrary/docs/Hydstra/index.cfm?site=21N01E13L003M,None
21N01E13L004M,BUT_13L004M SCREEN INTERVAL 240 TO 340                 ,CSU CHICO FARM SHALL,39.6734804,-121.8144029,WGS84     ,179.85,Butte,http://wdl.water.ca.gov/waterdatalibrary/docs/Hydstra/index.cfm?site=21N01E13L004M,None
21N01E27B001M,BUT_27B001M screen interval unknown                    ,Screen: Unknown     ,39.65071756,-121.85120309999999,NAD83     ,149.34,Butte,http://wdl.water.ca.gov/waterdatalibrary/docs/Hydstra/index.cfm?site=21N01E27B001M,None
21N01E28F001M,BUT_28F001M screen interval unknown                    ,Screen: Unknown     ,39.64741236,-121.87157240000002,NAD83     ,142.35,Butte,http://wdl.water.ca.gov/waterdatalibrary/docs/Hydstra/index.cfm?site=21N01E28F001M,None
21N01W05D001M,GLE_05D001M screen interval 783 to 1227 bgs            ,Screen: 783-1227 ft ,39.709957,-122.008121,WGS84     ,152.58,Glenn,http://wdl.water.ca.gov/waterdatalibrary/docs/Hydstra/index.cfm?site=21N01W05D001M,None
21N01W11A001M,"BUT_11A001Mscreen interval 810 to 1,280 ft bgs         ",Screen: 810-1280 ft ,39.69433298,-121.94095952,NAD83     ,129.3,Butte,http://wdl.water.ca.gov/waterdatalibrary/docs/Hydstra/index.cfm?site=21N01W11A001M,None
21N01W11A002M,BUT_11A002M screen interval 125 to 185 ft bgs          ,Screen: 125-185 ft  ,39.69433298,-121.94095952,NAD83     ,129.3,Butte,http://wdl.water.ca.gov/waterdatalibrary/docs/Hydstra/index.cfm?site=21N01W11A002M,None
21N01W11A003M,BUT_11A003 screen interval 30 to 50 ft bgs             ,Screen: 30-50 ft    ,39.69433298,-121.94095952,NAD83     ,129.3,Butte,http://wdl.water.ca.gov/waterdatalibrary/docs/Hydstra/index.cfm?site=21N01W11A003M,None
21N01W24B001M,BUT_24B001M screen interval 800 to 820 bgs             ,Screen: 800-820 ft  ,39.66426569,-121.92330390000001,NAD83     ,127.06,Butte,http://wdl.water.ca.gov/waterdatalibrary/docs/Hydstra/index.cfm?site=21N01W24B001M,None
21N01W31H001M,GLE_31H001M Screen Interval 800 to 1240 bgs            ,Screen: 800-1240 ft ,39.682255,-122.01168500000001,WGS84     ,145.48,Glenn,http://wdl.water.ca.gov/waterdatalibrary/docs/Hydstra/index.cfm?site=21N01W31H001M,None
21N01W35K002M,BUT_35K002M screen interval 75 to 135 bgs              ,Screen: 75-135 ft   ,39.62944219,-121.94197439999999,NAD83     ,114.36,Butte,http://wdl.water.ca.gov/waterdatalibrary/docs/Hydstra/index.cfm?site=21N01W35K002M,None
21N02E18C001M,But_18C001M screen interval 770-880 ft bgs             ,Screen: 770-880 ft  ,39.68195599,-121.79701116,NAD83     ,189.07,Butte,http://wdl.water.ca.gov/waterdatalibrary/docs/Hydstra/index.cfm?site=21N02E18C001M,None
21N02E18C002M,But_18C002M screen interval 360-620 ft bgs             ,Screen: 360-620 ft  ,39.68195599,-121.79701116,NAD83     ,189.07,Butte,http://wdl.water.ca.gov/waterdatalibrary/docs/Hydstra/index.cfm?site=21N02E18C002M,None
21N02E18C003M,But_18C003M screen interval 130-200 ft bgs             ,Screen: 130-200 ft  ,39.68195599,-121.79701116,NAD83     ,189.07,Butte,http://wdl.water.ca.gov/waterdatalibrary/docs/Hydstra/index.cfm?site=21N02E18C003M,None
21N02E26E003M,BUT_26E003M screen interval 610 to 620 bgs             ,Screen: 610-620 ft  ,39.64677442,-121.7262472,NAD83     ,182.27,Butte,http://wdl.water.ca.gov/waterdatalibrary/docs/Hydstra/index.cfm?site=21N02E26E003M,Pentz Obs Deep
21N02E26E004M,BUT_26E004M screen interval 400 to 484 bgs             ,Screen: 400-484 ft  ,39.64677442,-121.7262472,NAD83     ,18.27,Butte,http://wdl.water.ca.gov/waterdatalibrary/docs/Hydstra/index.cfm?site=21N02E26E004M,Pentz Obs Interm Deep
21N02E26E005M,BUT_26E005M screen interval 265 to 290 bgs             ,Screen: 265-290 ft  ,39.64677442,-121.7262472,NAD83     ,182.27,Butte,http://wdl.water.ca.gov/waterdatalibrary/docs/Hydstra/index.cfm?site=21N02E26E005M,Pentz Observation Well Interm. Shallow Zone
21N02E26E006M,BUT_26E006M screened interval 105 to 150               ,Screen: 105-150 ft  ,39.64677442,-121.7262472,NAD83     ,182.27,Butte,http://wdl.water.ca.gov/waterdatalibrary/docs/Hydstra/index.cfm?site=21N02E26E006M,Pentz Observation Well Shallow Zone
21N02E30L001M,BUT_30L001M screen interval unknown                    ,Screen: Unknown     ,39.63881014,-121.7990293,NAD83     ,159.33,Butte,http://wdl.water.ca.gov/waterdatalibrary/docs/Hydstra/index.cfm?site=21N02E30L001M,None
21N02W01F001M,GLE_01F001M screen interval 547 to 557 bgs             ,Screen: 547-557 ft  ,39.70437858,-122.03830049999999,NAD83     ,160.88,Glenn,http://wdl.water.ca.gov/waterdatalibrary/docs/Hydstra/index.cfm?site=21N02W01F001M,None
21N02W01F002M,GLE_01F002M screen interval 297 to 307 bgs             ,Screen: 297-307 ft  ,39.70438758,-122.0383004,NAD83     ,160.88,Glenn,http://wdl.water.ca.gov/waterdatalibrary/docs/Hydstra/index.cfm?site=21N02W01F002M,None
21N02W01F003M,GLE_01F003M screen interval 109 to 119 bgs             ,Screen: 109-119 ft  ,39.70439658,-122.0383003,NAD83     ,160.88,Glenn,http://wdl.water.ca.gov/waterdatalibrary/docs/Hydstra/index.cfm?site=21N02W01F003M,None
21N02W01F004M,GLE_01F004M screen interval 55 to 65 bgs               ,Screen: 55-65 ft    ,39.70440561,-122.03830020000001,NAD83     ,160.88,Glenn,http://wdl.water.ca.gov/waterdatalibrary/docs/Hydstra/index.cfm?site=21N02W01F004M,None
21N02W04G002M,GLE_04G002M screen interval 928 to 938 bgs             ,Screen: 928-938 ft  ,39.70156014,-122.0899305,NAD83     ,178.41,Glenn,http://wdl.water.ca.gov/waterdatalibrary/docs/Hydstra/index.cfm?site=21N02W04G002M,None
21N02W04G003M,GLE_04G003M screen interval 673 to 703 bgs             ,Screen: 673-703 ft  ,39.70156014,-122.0899305,NAD83     ,178.41,Glenn,http://wdl.water.ca.gov/waterdatalibrary/docs/Hydstra/index.cfm?site=21N02W04G003M,None
21N02W04G004M,GLE_04G004M screen interval 269 to 279 bgs             ,Screen: 269-279 ft  ,39.70156014,-122.0899305,NAD83     ,178.41,Glenn,http://wdl.water.ca.gov/waterdatalibrary/docs/Hydstra/index.cfm?site=21N02W04G004M,None
21N02W04G005M,GLE_04G005M screen interval 57 to 67 bgs               ,Screen: 57-67 ft    ,39.70156014,-122.0899305,NAD83     ,178.41,Glenn,http://wdl.water.ca.gov/waterdatalibrary/docs/Hydstra/index.cfm?site=21N02W04G005M,None
21N02W05M001M,GLE_05M001M screen interval 442 to 452 bgs             ,Screen: 442-452 ft  ,39.70081558,-122.12075690000002,NAD83     ,188.93,Glenn,http://wdl.water.ca.gov/waterdatalibrary/docs/Hydstra/index.cfm?site=21N02W05M001M,None
21N02W05M002M,GLE_05M002M screen interval 122 to 132 bgs             ,Screen: 122-132 ft  ,39.70081558,-122.12075690000002,NAD83     ,188.93,Glenn,http://wdl.water.ca.gov/waterdatalibrary/docs/Hydstra/index.cfm?site=21N02W05M002M,None
21N02W05M003M,GLE_05M003M screen interval 44 to 54 bgs               ,Screen: 44-54 ft    ,39.70081558,-122.12075690000002,NAD83     ,188.93,Glenn,http://wdl.water.ca.gov/waterdatalibrary/docs/Hydstra/index.cfm?site=21N02W05M003M,None
21N02W05M004M,GLE_05M004M screen interval 36 to 56 bgs               ,Screen: 36-56 ft    ,39.70027483,-122.12074040000002,NAD83     ,191.83,Glenn,http://wdl.water.ca.gov/waterdatalibrary/docs/Hydstra/index.cfm?site=21N02W05M004M,None
21N02W05M005M,GLE_05M005M screen interval 30 to 35 bgs               ,Screen: 30-35 ft    ,39.70078864,-122.1207689,NAD83     ,190.62,Glenn,http://wdl.water.ca.gov/waterdatalibrary/docs/Hydstra/index.cfm?site=21N02W05M005M,None
21N02W25L001M,GLE_25L001M screen interval unknown                    ,Screen: Unknown     ,39.64200567,-122.03843789999999,NAD83     ,142.39,Glenn,http://wdl.water.ca.gov/waterdatalibrary/docs/Hydstra/index.cfm?site=21N02W25L001M,None
21N02W33M001M,GLE_33M001M screen interval 869 to 890 bgs             ,Screen: 869-890 ft  ,39.62971436,-122.1004507,NAD83     ,149.0,Glenn,http://wdl.water.ca.gov/waterdatalibrary/docs/Hydstra/index.cfm?site=21N02W33M001M,None
21N02W33M002M,GLE_33M002M screen interval 540 to 550 bgs             ,Screen: 540-550 ft  ,39.62971436,-122.1004507,NAD83     ,149.0,Glenn,http://wdl.water.ca.gov/waterdatalibrary/docs/Hydstra/index.cfm?site=21N02W33M002M,None
21N02W33M003M,GLE_33M003M screen interval 140 to 150 bgs             ,Screen: 140-150 ft  ,39.62971436,-122.1004507,NAD83     ,149.0,Glenn,http://wdl.water.ca.gov/waterdatalibrary/docs/Hydstra/index.cfm?site=21N02W33M003M,None
21N02W36A001M,GLE_36A001M screen interval 190 to 600 bgs             ,Screen: 190-600 ft  ,39.63507822,-122.03317340000002,NAD83     ,135.39,Glenn,http://wdl.water.ca.gov/waterdatalibrary/docs/Hydstra/index.cfm?site=21N02W36A001M,None
21N02W36A002M,GLE_36A002M screen interval 120 to 140 bgs             ,Screen: 120-140 ft  ,39.63507822,-122.03317340000002,NAD83     ,135.39,Glenn,http://wdl.water.ca.gov/waterdatalibrary/docs/Hydstra/index.cfm?site=21N02W36A002M,None
21N03E32B001M,BUT_32B001M screen interval unknown                    ,Screen: Unknown     ,39.63967122,-121.66419429999999,NAD83     ,238.43,Butte,http://wdl.water.ca.gov/waterdatalibrary/docs/Hydstra/index.cfm?site=21N03E32B001M,None
21N03W01R002M,GLE_01R002M screen interval 235 to 245 bgs             ,Screen: 235-245 ft  ,39.69703925,-122.2559384,NAD83     ,203.32,Glenn,http://wdl.water.ca.gov/waterdatalibrary/docs/Hydstra/index.cfm?site=21N03W01R002M,None
21N03W01R003M,GLE_01R003M screen interval 590 to 1310 bgs            ,Screen: 590-1310 ft ,39.69625097,-122.14047930000001,NAD83     ,203.53,Glenn,http://wdl.water.ca.gov/waterdatalibrary/docs/Hydstra/index.cfm?site=21N03W01R003M,None
21N03W23C001M,GLE_23C001M screen interval 55 to 75 bgs               ,Screen: 55-75 ft    ,39.66763156,-122.1697472,NAD83     ,200.35,Glenn,http://wdl.water.ca.gov/waterdatalibrary/docs/Hydstra/index.cfm?site=21N03W23C001M,None
21N03W23D001M,GLE_23D001M screen interval 363 to 373 bgs             ,Screen: 363-373 ft  ,39.66719014,-122.17735390000001,NAD83     ,204.76,Glenn,http://wdl.water.ca.gov/waterdatalibrary/docs/Hydstra/index.cfm?site=21N03W23D001M,None
21N03W23D002M,GLE_23D002M screen interval 142 to 170 bgs             ,Screen: 142-170 ft  ,39.66719014,-122.17735390000001,NAD83     ,204.76,Glenn,http://wdl.water.ca.gov/waterdatalibrary/docs/Hydstra/index.cfm?site=21N03W23D002M,None
21N03W23D003M,GLE_23D003M screen interval 42 to 72 bgs               ,Screen: 42-72 ft    ,39.66719014,-122.17735390000001,NAD83     ,204.76,Glenn,http://wdl.water.ca.gov/waterdatalibrary/docs/Hydstra/index.cfm?site=21N03W23D003M,None
21N03W23D004M,GLE_23D004M screen interval 48 to 68 bgs               ,Screen: 48-68 ft    ,39.66754547,-122.1766385,NAD83     ,205.07,Glenn,http://wdl.water.ca.gov/waterdatalibrary/docs/Hydstra/index.cfm?site=21N03W23D004M,None
21N03W23D005M,GLE_23D005M screen interval 46 to 66 bgs               ,Screen: 46-66 ft    ,39.66697994,-122.17693659999999,NAD83     ,203.07,Glenn,http://wdl.water.ca.gov/waterdatalibrary/docs/Hydstra/index.cfm?site=21N03W23D005M,None
21N03W31R002M,GLE_ 31R002M screen interval 280 to 285 bgs            ,Screen: Unknown     ,39.46307106,-122.23687290000001,NAD83     ,185.46,Glenn,http://wdl.water.ca.gov/waterdatalibrary/docs/Hydstra/index.cfm?site=21N03W31R002M,None
21N03W31R003M,GLE_ 31R003M screen interval 519 to 525 bgs            ,Screen: Unknown     ,39.46307106,-122.23687290000001,NAD83     ,185.46,Glenn,http://wdl.water.ca.gov/waterdatalibrary/docs/Hydstra/index.cfm?site=21N03W31R003M,None
21N03W31R004M,GLE_ 31R004M screen interval unknown                   ,Screen: Unknown     ,39.46307106,-122.23687290000001,NAD83     ,185.46,Glenn,http://wdl.water.ca.gov/waterdatalibrary/docs/Hydstra/index.cfm?site=21N03W31R004M,None
21N03W31R005M,GLE_ 31R005M screen interval 99 to 105 bgs             ,Screen: Unknown     ,39.46307106,-122.23687290000001,NAD83     ,185.46,Glenn,http://wdl.water.ca.gov/waterdatalibrary/docs/Hydstra/index.cfm?site=21N03W31R005M,None
21N03W34Q002M,GLE_34Q002M screen interval 929 to 959 bgs             ,Screen: 929-959 ft  ,39.62471297,-122.18714320000001,NAD83     ,166.65,Glenn,http://wdl.water.ca.gov/waterdatalibrary/docs/Hydstra/index.cfm?site=21N03W34Q002M,None
21N03W34Q003M,GLE_34Q003M screen interval 620 to 690 bgs             ,Screen: 620-690 ft  ,39.62471297,-122.18714320000001,NAD83     ,166.65,Glenn,http://wdl.water.ca.gov/waterdatalibrary/docs/Hydstra/index.cfm?site=21N03W34Q003M,None
21N03W34Q004M,GLE_34Q004M screen interval 58 to 68 bgs               ,Screen: 58-68 ft    ,39.62471297,-122.18714320000001,NAD83     ,166.65,Glenn,http://wdl.water.ca.gov/waterdatalibrary/docs/Hydstra/index.cfm?site=21N03W34Q004M,None
21N04W12A001M,GLE_12A001M screen interval 595 to 605 bgs             ,Screen: 595-605 ft  ,39.69715747,-122.25330120000001,NAD83     ,247.88,Glenn,http://wdl.water.ca.gov/waterdatalibrary/docs/Hydstra/index.cfm?site=21N04W12A001M,None
21N04W12A002M,GLE_12A002M screen interval 247 to 257 bgs             ,Screen: 247-257 ft  ,39.69716647,-122.25330109999999,NAD83     ,247.88,Glenn,http://wdl.water.ca.gov/waterdatalibrary/docs/Hydstra/index.cfm?site=21N04W12A002M,None
21N04W12A003M,Gln_12A003M screen interval 955-1050 ft bgs            ,Screen: 955-1050 ft ,39.6970501,-122.25339788,NAD83     ,247.5,Glenn,http://wdl.water.ca.gov/waterdatalibrary/docs/Hydstra/index.cfm?site=21N04W12A003M,None
21N04W12A004M,GLE_12A004M screen interval 520 to 640 bgs             ,Screen: 520-640 ft  ,39.69716647,-122.25330109999999,NAD83     ,247.5,Glenn,http://wdl.water.ca.gov/waterdatalibrary/docs/Hydstra/index.cfm?site=21N04W12A004M,None
22N01E28J001M,BUT_28J001M screen interval 460 t0 559 bgs             ,Screen: 460-559 ft  ,39.7314,-121.8651,NAD83     ,178.87,Butte,http://wdl.water.ca.gov/waterdatalibrary/docs/Hydstra/index.cfm?site=22N01E28J001M,None
22N01E28J003M,BUT_28J003M screen interval 200 to 279 bgs             ,Screen: 200-279 ft  ,39.731660999999995,-121.865008,WGS84     ,178.29,Butte,http://wdl.water.ca.gov/waterdatalibrary/docs/Hydstra/index.cfm?site=22N01E28J003M,None
22N01E28J005M,BUT_28J005M screen interval 740 to 800 bgs             ,Screen: 740-800 ft  ,39.731667,-121.86499199999999,WGS84     ,178.89,Butte,http://wdl.water.ca.gov/waterdatalibrary/docs/Hydstra/index.cfm?site=22N01E28J005M,None
22N01E32E004M,BUT_32E004M screen interval unknown                    ,Screen: Unknown     ,39.71997422,-121.89736509999999,NAD83     ,150.94,Butte,http://wdl.water.ca.gov/waterdatalibrary/docs/Hydstra/index.cfm?site=22N01E32E004M,None
22N01E35E001M,BUT_35E001M screen interval 101 to 372 bgs             ,Screen: 101-372 ft  ,39.71808664,-121.84320259999998,NAD83     ,182.33,Butte,http://wdl.water.ca.gov/waterdatalibrary/docs/Hydstra/index.cfm?site=22N01E35E001M,None
22N01W05M001M,BUT_05M001M screen interval unknown                    ,Screen: Unknown     ,39.78711111,-122.0097398,NAD83     ,151.48,Butte,http://wdl.water.ca.gov/waterdatalibrary/docs/Hydstra/index.cfm?site=22N01W05M001M,None
22N01W19K005M,GLE_19K005M Screen Interval 920 to 1230 bgs            ,Screen: 920-1230 ft ,39.747504,-122.022112,WGS84     ,155.94,Glenn,http://wdl.water.ca.gov/waterdatalibrary/docs/Hydstra/index.cfm?site=22N01W19K005M,None
22N01W29N001M,Glenn_29N001M screen interval 859-1135 ft bgs.         ,Screen: 859-1135 ft ,39.72618217,-122.01055101,NAD83     ,146.25,Glenn,http://wdl.water.ca.gov/waterdatalibrary/docs/Hydstra/index.cfm?site=22N01W29N001M,None
22N01W29N002M,Glenn_29N002M Screened Interval 549-641 ft bgs         ,Screen: 549-641 ft  ,39.72626217,-122.01055102,NAD83     ,146.25,Glenn,http://wdl.water.ca.gov/waterdatalibrary/docs/Hydstra/index.cfm?site=22N01W29N002M,None
22N01W29N003M,Glenn_29Q003M Screened Interval 189-380 ft bgs         ,Screen: 189-380 ft  ,39.72626217,-122.01055102,NAD83     ,146.25,Glenn,http://wdl.water.ca.gov/waterdatalibrary/docs/Hydstra/index.cfm?site=22N01W29N003M,None
22N01W29N004M,Glenn_29N004M Screened Interval 99-109 ft bgs          ,Screen: 99-109 ft   ,39.72626217,-122.01055102,NAD83     ,146.25,Glenn,http://wdl.water.ca.gov/waterdatalibrary/docs/Hydstra/index.cfm?site=22N01W29N004M,None
22N02E30C002M,BUT_30C002M screen interval 90 to 190 bgs              ,Screen: 90-190 ft   ,39.73830581,-121.7980742,NAD83     ,243.63,Butte,http://wdl.water.ca.gov/waterdatalibrary/docs/Hydstra/index.cfm?site=22N02E30C002M,None
22N02W01N001M,GLE_01N001M screen interval 812 to 1050 bgs            ,Screen: 812-1050 ft ,39.78357825,-122.0461909,NAD83     ,159.21,Glenn,http://wdl.water.ca.gov/waterdatalibrary/docs/Hydstra/index.cfm?site=22N02W01N001M,None
22N02W01N002M,GLE_01N002M screen interval 698 to 708 bgs             ,Screen: 698-708 ft  ,39.78357825,-122.0461909,NAD83     ,159.21,Glenn,http://wdl.water.ca.gov/waterdatalibrary/docs/Hydstra/index.cfm?site=22N02W01N002M,None
22N02W01N003M,GLE_01N003M screen interval 209 to 367 bgs             ,Screen: 209-367 ft  ,39.78357825,-122.0461909,NAD83     ,159.0,Glenn,http://wdl.water.ca.gov/waterdatalibrary/docs/Hydstra/index.cfm?site=22N02W01N003M,None
22N02W01N004M,GLE_01N004M screen interval 70 to 80 bgs               ,Screen: 70-80 ft    ,39.78357825,-122.0461909,NAD83     ,159.21,Glenn,http://wdl.water.ca.gov/waterdatalibrary/docs/Hydstra/index.cfm?site=22N02W01N004M,None
22N02W02J001M,GLE_02J001M screen interval 800 to 1300 bgs            ,Screen: 800-1300 ft ,39.78735267,-122.0493971,NAD83     ,164.7,Glenn,http://wdl.water.ca.gov/waterdatalibrary/docs/Hydstra/index.cfm?site=22N02W02J001M,None
22N02W15C002M,GLE_15C002M screen interval 759 to 780 bgs             ,Screen: 759-780 ft  ,39.76351217,-122.0772773,NAD83     ,189.3,Glenn,http://wdl.water.ca.gov/waterdatalibrary/docs/Hydstra/index.cfm?site=22N02W15C002M,None
22N02W15C003M,GLE_15C003M screen interval 370 to 380 bgs             ,Screen: 370-380 ft  ,39.76351217,-122.0772773,NAD83     ,189.3,Glenn,http://wdl.water.ca.gov/waterdatalibrary/docs/Hydstra/index.cfm?site=22N02W15C003M,None
22N02W15C004M,GLE_15C004M screen interval 210 to 220 bgs             ,Screen: 210-220 ft  ,39.76351217,-122.0772773,NAD83     ,189.3,Glenn,http://wdl.water.ca.gov/waterdatalibrary/docs/Hydstra/index.cfm?site=22N02W15C004M,None
22N02W15C005M,GLE_15C005M screen interval 60 to 70 bgs               ,Screen: 60-70 ft    ,39.76351217,-122.0772773,NAD83     ,189.3,Glenn,http://wdl.water.ca.gov/waterdatalibrary/docs/Hydstra/index.cfm?site=22N02W15C005M,None
22N02W18C001M,GLE_18C001M screen interval 989 to 1029 bgs            ,Screen: 989-1029 ft ,39.76820217,-122.13644440000002,NAD83     ,223.44,Glenn,http://wdl.water.ca.gov/waterdatalibrary/docs/Hydstra/index.cfm?site=22N02W18C001M,None
22N02W18C002M,GLE_18C002M screen interval 414 to 434 bgs             ,Screen: 414-434 ft  ,39.76820217,-122.13644440000002,NAD83     ,223.44,Glenn,http://wdl.water.ca.gov/waterdatalibrary/docs/Hydstra/index.cfm?site=22N02W18C002M,None
22N02W18C003M,GLE_18C003M screen interval 165 to 175 bgs             ,Screen: 165-175 ft  ,39.76820217,-122.13644440000002,NAD83     ,223.44,Glenn,http://wdl.water.ca.gov/waterdatalibrary/docs/Hydstra/index.cfm?site=22N02W18C003M,None
22N02W18C004M,GLE_18C004M screen interval 55 to 65 bgs               ,Screen: 55-65 ft    ,39.76820217,-122.13644440000002,NAD83     ,223.44,Glenn,http://wdl.water.ca.gov/waterdatalibrary/docs/Hydstra/index.cfm?site=22N02W18C004M,None
22N02W30H002M,GLE_30H002M screen interval 850 to 880 bgs             ,Screen: 850-880 ft  ,39.73251233,-122.12306159999999,NAD83     ,204.43,Glenn,http://wdl.water.ca.gov/waterdatalibrary/docs/Hydstra/index.cfm?site=22N02W30H002M,None
22N02W30H003M,GLE_30H003M screen interval 130 to 260 bgs             ,Screen: 130-260 ft  ,39.73251233,-122.12306159999999,NAD83     ,204.43,Glenn,http://wdl.water.ca.gov/waterdatalibrary/docs/Hydstra/index.cfm?site=22N02W30H003M,None
22N02W30H004M,GLE_30H004M screen interval 45 to 70 bgs               ,Screen: 45-70 ft    ,39.73251233,-122.12306159999999,NAD83     ,204.32,Glenn,http://wdl.water.ca.gov/waterdatalibrary/docs/Hydstra/index.cfm?site=22N02W30H004M,None
22N02W30R001M,GLE_30R001M Screen Interval 710 to 916 bgs             ,Screen: 710-916 ft  ,39.725265,-122.128025,WGS84     ,207.43,Glenn,http://wdl.water.ca.gov/waterdatalibrary/docs/Hydstra/index.cfm?site=22N02W30R001M,None
22N03W01R001M,GLE_01R001M screen interval 470 to 480 bgs             ,Screen: 470-480 ft  ,39.78663117,-122.14545179999999,NAD83     ,226.04,Glenn,http://wdl.water.ca.gov/waterdatalibrary/docs/Hydstra/index.cfm?site=22N03W01R001M,None
22N03W01R002M,GLE_01R002M screen interval 270 to 280 bgs             ,Screen: 270-280 ft  ,39.78664017,-122.1454517,NAD83     ,226.04,Glenn,http://wdl.water.ca.gov/waterdatalibrary/docs/Hydstra/index.cfm?site=22N03W01R002M,None
22N03W01R003M,GLE_01R003M screen interval 60 to 70 bgs               ,Screen: 60-70 ft    ,39.78664917,-122.14545159999999,NAD83     ,226.04,Glenn,http://wdl.water.ca.gov/waterdatalibrary/docs/Hydstra/index.cfm?site=22N03W01R003M,None
22N03W24E001M,GLE_24E001M screen interval 800 to 820 bgs             ,Screen: 800-820 ft  ,39.74716336,-122.15597759999999,NAD83     ,230.51,Glenn,http://wdl.water.ca.gov/waterdatalibrary/docs/Hydstra/index.cfm?site=22N03W24E001M,None
22N03W24E002M,GLE_24E002M screen interval 128 to 178 bgs             ,Screen: 128-178 ft  ,39.74716336,-122.15597759999999,NAD83     ,230.51,Glenn,http://wdl.water.ca.gov/waterdatalibrary/docs/Hydstra/index.cfm?site=22N03W24E002M,None
22N03W24E003M,GLE_24E003M screen interval 49 to 59 bgs               ,Screen: 49-59 ft    ,39.74716336,-122.15597759999999,NAD83     ,230.51,Glenn,http://wdl.water.ca.gov/waterdatalibrary/docs/Hydstra/index.cfm?site=22N03W24E003M,None
22N03W28P001M,GLE_28P001M screen interval 390 to 400 bgs             ,Screen: 390-400 ft  ,39.72792728,-122.20714620000001,NAD83     ,258.22,Glenn,http://wdl.water.ca.gov/waterdatalibrary/docs/Hydstra/index.cfm?site=22N03W28P001M,None
22N03W28P002M,GLE_28P002M screen interval 270 to 290 bgs             ,Screen: 270-290 ft  ,39.72792728,-122.20714620000001,NAD83     ,258.22,Glenn,http://wdl.water.ca.gov/waterdatalibrary/docs/Hydstra/index.cfm?site=22N03W28P002M,None
22N03W28P003M,GLE_28P003M screen interval 30 to 50 bgs               ,Screen: 30-50 ft    ,39.72792728,-122.20714620000001,NAD83     ,258.22,Glenn,http://wdl.water.ca.gov/waterdatalibrary/docs/Hydstra/index.cfm?site=22N03W28P003M,None
22N03W28P004M,GLE_28P004M screen interval 32 to 52 bgs               ,Screen: 32-52 ft    ,39.72753989,-122.2071506,NAD83     ,257.31,Glenn,http://wdl.water.ca.gov/waterdatalibrary/docs/Hydstra/index.cfm?site=22N03W28P004M,None
23N01W10M001M,BUT_10M001M screen interval 90 to 200 bgs              ,Screen: 90-200 ft   ,39.86019906,-121.97348840000001,NAD83     ,187.38,Butte,http://wdl.water.ca.gov/waterdatalibrary/docs/Hydstra/index.cfm?site=23N01W10M001M,None
23N01W28M002M,BUT_28M002M screen interval 791 to 1021 bgs            ,Screen: 791-1021 ft ,39.81861111,-121.9911111,NAD83     ,159.02,Butte,http://wdl.water.ca.gov/waterdatalibrary/docs/Hydstra/index.cfm?site=23N01W28M002M,None
23N01W28M003M,BUT_28M003M screen interval 640 to 670 bgs             ,Screen: 640-670 ft  ,39.81861111,-121.9911111,NAD83     ,159.02,Butte,http://wdl.water.ca.gov/waterdatalibrary/docs/Hydstra/index.cfm?site=23N01W28M003M,None
23N01W28M004M,BUT_28M004M Screened Interval 120 to 165 feet bgs.     ,Screen: 120-165 ft  ,39.81861111,-121.9911111,NAD83     ,159.02,Butte,http://wdl.water.ca.gov/waterdatalibrary/docs/Hydstra/index.cfm?site=23N01W28M004M,None
23N01W28M005M,BUT_28M005M Screened Interval 30 to 50 feet bgs.       ,Screen: 30-50 ft    ,39.81861111,-121.9911111,NAD83     ,159.02,Butte,http://wdl.water.ca.gov/waterdatalibrary/docs/Hydstra/index.cfm?site=23N01W28M005M,None
